{
"type": "FeatureCollection",
"crs": { "type": "name", "properties": { "name": "urn:ogc:def:crs:OGC:1.3:CRS84" } },
"features": [
{ "type": "Feature", "properties": { "osm_id": "4172141028", "code": 2302, "fclass": "fast_food", "name": "Wok U Like" }, "geometry": { "type": "Point", "coordinates": [ -1.0791273, 51.268088 ] } },
{ "type": "Feature", "properties": { "osm_id": "645567279", "code": 2302, "fclass": "fast_food", "name": "McDonald's" }, "geometry": { "type": "Point", "coordinates": [ -0.2378366, 51.7629461 ] } },
{ "type": "Feature", "properties": { "osm_id": "2927474313", "code": 2302, "fclass": "fast_food", "name": "Mama Mia Takeaway" }, "geometry": { "type": "Point", "coordinates": [ -2.4379169, 53.5925613 ] } },
{ "type": "Feature", "properties": { "osm_id": "645567281", "code": 2302, "fclass": "fast_food", "name": "Burger King" }, "geometry": { "type": "Point", "coordinates": [ -0.2384271, 51.7628046 ] } },
{ "type": "Feature", "properties": { "osm_id": "2927482772", "code": 2302, "fclass": "fast_food", "name": "The New Curry House takeaway" }, "geometry": { "type": "Point", "coordinates": [ -2.4385664, 53.5927541 ] } },
{ "type": "Feature", "properties": { "osm_id": "2927508167", "code": 2302, "fclass": "fast_food", "name": "Valentinos Pizza & Kebab" }, "geometry": { "type": "Point", "coordinates": [ -2.438776, 53.5928314 ] } },
{ "type": "Feature", "properties": { "osm_id": "645567303", "code": 2302, "fclass": "fast_food", "name": "Khyber Balti House" }, "geometry": { "type": "Point", "coordinates": [ -0.2266442, 51.7622681 ] } },
{ "type": "Feature", "properties": { "osm_id": "645567308", "code": 2302, "fclass": "fast_food", "name": "Hatfield Kebab House" }, "geometry": { "type": "Point", "coordinates": [ -0.2311642, 51.7624955 ] } },
{ "type": "Feature", "properties": { "osm_id": "2927521273", "code": 2302, "fclass": "fast_food", "name": "Nice and Spicy - Morecambe" }, "geometry": { "type": "Point", "coordinates": [ -2.8461513, 54.0602329 ] } },
{ "type": "Feature", "properties": { "osm_id": "645567314", "code": 2302, "fclass": "fast_food", "name": "Skippers" }, "geometry": { "type": "Point", "coordinates": [ -0.2310785, 51.7625139 ] } },
{ "type": "Feature", "properties": { "osm_id": "645567320", "code": 2302, "fclass": "fast_food", "name": "Red Eagle" }, "geometry": { "type": "Point", "coordinates": [ -0.2305862, 51.7626544 ] } },
{ "type": "Feature", "properties": { "osm_id": "2240248941", "code": 2302, "fclass": "fast_food", "name": "Nice and Spicy" }, "geometry": { "type": "Point", "coordinates": [ -1.1353043, 52.9779962 ] } },
{ "type": "Feature", "properties": { "osm_id": "2927559956", "code": 2302, "fclass": "fast_food", "name": "Yang Sing Chinese Takeaway" }, "geometry": { "type": "Point", "coordinates": [ -2.8797321, 54.065808 ] } },
{ "type": "Feature", "properties": { "osm_id": "645567343", "code": 2302, "fclass": "fast_food", "name": "Rice Time" }, "geometry": { "type": "Point", "coordinates": [ -0.2251032, 51.7635926 ] } },
{ "type": "Feature", "properties": { "osm_id": "1875074588", "code": 2302, "fclass": "fast_food", "name": "Worth Valley Fisheries" }, "geometry": { "type": "Point", "coordinates": [ -1.916407, 53.8530469 ] } },
{ "type": "Feature", "properties": { "osm_id": "2240248945", "code": 2302, "fclass": "fast_food", "name": "Mapperley Fryer" }, "geometry": { "type": "Point", "coordinates": [ -1.1352532, 52.9780382 ] } },
{ "type": "Feature", "properties": { "osm_id": "2927567897", "code": 2302, "fclass": "fast_food", "name": "Bodrum Takeaway" }, "geometry": { "type": "Point", "coordinates": [ -2.8637243, 54.0729772 ] } },
{ "type": "Feature", "properties": { "osm_id": "645567347", "code": 2302, "fclass": "fast_food", "name": "TGF Pizza" }, "geometry": { "type": "Point", "coordinates": [ -0.2252611, 51.7635608 ] } },
{ "type": "Feature", "properties": { "osm_id": "645567352", "code": 2302, "fclass": "fast_food", "name": "Pizza Gogo" }, "geometry": { "type": "Point", "coordinates": [ -0.2265678, 51.7623496 ] } },
{ "type": "Feature", "properties": { "osm_id": "2240253756", "code": 2302, "fclass": "fast_food", "name": "Chunky Chicken" }, "geometry": { "type": "Point", "coordinates": [ -1.1507346, 52.9576717 ] } },
{ "type": "Feature", "properties": { "osm_id": "645568729", "code": 2302, "fclass": "fast_food", "name": "Jemima's" }, "geometry": { "type": "Point", "coordinates": [ -0.2255906, 51.7630397 ] } },
{ "type": "Feature", "properties": { "osm_id": "2240253767", "code": 2302, "fclass": "fast_food", "name": "Trent Kebabs" }, "geometry": { "type": "Point", "coordinates": [ -1.1509426, 52.9577052 ] } },
{ "type": "Feature", "properties": { "osm_id": "392690467", "code": 2302, "fclass": "fast_food", "name": null }, "geometry": { "type": "Point", "coordinates": [ -2.8871155, 53.1873634 ] } },
{ "type": "Feature", "properties": { "osm_id": "1038220231", "code": 2302, "fclass": "fast_food", "name": "Spice of Bengal" }, "geometry": { "type": "Point", "coordinates": [ -1.6915164, 53.688297 ] } },
{ "type": "Feature", "properties": { "osm_id": "1038343166", "code": 2302, "fclass": "fast_food", "name": "New Bismila" }, "geometry": { "type": "Point", "coordinates": [ -1.7043319, 53.699795 ] } },
{ "type": "Feature", "properties": { "osm_id": "1038343260", "code": 2302, "fclass": "fast_food", "name": "Persico's" }, "geometry": { "type": "Point", "coordinates": [ -1.7044629, 53.6997672 ] } },
{ "type": "Feature", "properties": { "osm_id": "4403962923", "code": 2302, "fclass": "fast_food", "name": "NAZ Halal Takeaway" }, "geometry": { "type": "Point", "coordinates": [ -1.6159858, 54.9372351 ] } },
{ "type": "Feature", "properties": { "osm_id": "4172314777", "code": 2302, "fclass": "fast_food", "name": null }, "geometry": { "type": "Point", "coordinates": [ -2.1760175, 53.5872379 ] } },
{ "type": "Feature", "properties": { "osm_id": "1038359929", "code": 2302, "fclass": "fast_food", "name": "Taste of Oriental" }, "geometry": { "type": "Point", "coordinates": [ -3.0296758, 52.203674 ] } },
{ "type": "Feature", "properties": { "osm_id": "1875922160", "code": 2302, "fclass": "fast_food", "name": "Paprika" }, "geometry": { "type": "Point", "coordinates": [ -1.5461364, 53.3639128 ] } },
{ "type": "Feature", "properties": { "osm_id": "2522559230", "code": 2302, "fclass": "fast_food", "name": "Corner Chippy" }, "geometry": { "type": "Point", "coordinates": [ -1.0883796, 50.8208517 ] } },
{ "type": "Feature", "properties": { "osm_id": "482835022", "code": 2302, "fclass": "fast_food", "name": "KFC" }, "geometry": { "type": "Point", "coordinates": [ -0.0956624, 51.4884238 ] } },
{ "type": "Feature", "properties": { "osm_id": "2522664082", "code": 2302, "fclass": "fast_food", "name": "McDonald's" }, "geometry": { "type": "Point", "coordinates": [ 0.2163355, 51.5628346 ] } },
{ "type": "Feature", "properties": { "osm_id": "3638036373", "code": 2302, "fclass": "fast_food", "name": "KFC" }, "geometry": { "type": "Point", "coordinates": [ -2.5960159, 51.524831 ] } },
{ "type": "Feature", "properties": { "osm_id": "317633115", "code": 2302, "fclass": "fast_food", "name": "Pizza Paz" }, "geometry": { "type": "Point", "coordinates": [ -1.4860707, 53.3898477 ] } },
{ "type": "Feature", "properties": { "osm_id": "317633117", "code": 2302, "fclass": "fast_food", "name": "Shanghai Garden" }, "geometry": { "type": "Point", "coordinates": [ -1.4860273, 53.3899067 ] } },
{ "type": "Feature", "properties": { "osm_id": "646553312", "code": 2302, "fclass": "fast_food", "name": "Dominos Pizza" }, "geometry": { "type": "Point", "coordinates": [ -0.228414, 51.505912 ] } },
{ "type": "Feature", "properties": { "osm_id": "646583090", "code": 2302, "fclass": "fast_food", "name": "Golden Choice" }, "geometry": { "type": "Point", "coordinates": [ -1.2407181, 52.7661552 ] } },
{ "type": "Feature", "properties": { "osm_id": "317633121", "code": 2302, "fclass": "fast_food", "name": "Wong's Kitchen" }, "geometry": { "type": "Point", "coordinates": [ -1.4870191, 53.3903819 ] } },
{ "type": "Feature", "properties": { "osm_id": "2927912174", "code": 2302, "fclass": "fast_food", "name": "Farmhouse Pizza Takeaway" }, "geometry": { "type": "Point", "coordinates": [ 0.0132128, 51.4278873 ] } },
{ "type": "Feature", "properties": { "osm_id": "2927933983", "code": 2302, "fclass": "fast_food", "name": "Clay Cross Kebab & Curry House" }, "geometry": { "type": "Point", "coordinates": [ -1.4154403, 53.1671187 ] } },
{ "type": "Feature", "properties": { "osm_id": "4404146008", "code": 2302, "fclass": "fast_food", "name": "Charcoal Grill" }, "geometry": { "type": "Point", "coordinates": [ -2.4812191, 51.2860148 ] } },
{ "type": "Feature", "properties": { "osm_id": "3838778009", "code": 2302, "fclass": "fast_food", "name": "Fryer Tucks Fish And Chips" }, "geometry": { "type": "Point", "coordinates": [ -1.9239036, 54.5439631 ] } },
{ "type": "Feature", "properties": { "osm_id": "2241966747", "code": 2302, "fclass": "fast_food", "name": "Fish & Chips" }, "geometry": { "type": "Point", "coordinates": [ -2.5165714, 51.8551337 ] } },
{ "type": "Feature", "properties": { "osm_id": "1876629781", "code": 2302, "fclass": "fast_food", "name": "Rooster's" }, "geometry": { "type": "Point", "coordinates": [ -1.9040497, 53.8674276 ] } },
{ "type": "Feature", "properties": { "osm_id": "3838795334", "code": 2302, "fclass": "fast_food", "name": "Oliver Twist's Sandwich And Salad Bar" }, "geometry": { "type": "Point", "coordinates": [ -1.92457, 54.5444295 ] } },
{ "type": "Feature", "properties": { "osm_id": "4404156364", "code": 2302, "fclass": "fast_food", "name": "Subway" }, "geometry": { "type": "Point", "coordinates": [ -0.2005791, 51.4831892 ] } },
{ "type": "Feature", "properties": { "osm_id": "259565473", "code": 2302, "fclass": "fast_food", "name": "Eat 88" }, "geometry": { "type": "Point", "coordinates": [ -1.5223561, 53.6722029 ] } },
{ "type": "Feature", "properties": { "osm_id": "2523807500", "code": 2302, "fclass": "fast_food", "name": "Love Chicken" }, "geometry": { "type": "Point", "coordinates": [ -1.8942868, 52.4800511 ] } },
{ "type": "Feature", "properties": { "osm_id": "2242405609", "code": 2302, "fclass": "fast_food", "name": "Seafare Two" }, "geometry": { "type": "Point", "coordinates": [ -1.4755407, 50.9956355 ] } },
{ "type": "Feature", "properties": { "osm_id": "3838902013", "code": 2302, "fclass": "fast_food", "name": "Best Kebab Takeaway" }, "geometry": { "type": "Point", "coordinates": [ -2.1582425, 51.9921945 ] } },
{ "type": "Feature", "properties": { "osm_id": "4404156380", "code": 2302, "fclass": "fast_food", "name": "Manila's Best Eatery" }, "geometry": { "type": "Point", "coordinates": [ -0.2020442, 51.4850293 ] } },
{ "type": "Feature", "properties": { "osm_id": "4404156381", "code": 2302, "fclass": "fast_food", "name": "Go Grill" }, "geometry": { "type": "Point", "coordinates": [ -0.2005525, 51.4831476 ] } },
{ "type": "Feature", "properties": { "osm_id": "2242405612", "code": 2302, "fclass": "fast_food", "name": "Rickshaw" }, "geometry": { "type": "Point", "coordinates": [ -1.4915013, 50.9896581 ] } },
{ "type": "Feature", "properties": { "osm_id": "317688958", "code": 2302, "fclass": "fast_food", "name": "McDonald's" }, "geometry": { "type": "Point", "coordinates": [ -1.6719083, 53.8039256 ] } },
{ "type": "Feature", "properties": { "osm_id": "483265641", "code": 2302, "fclass": "fast_food", "name": "The Butty Mine" }, "geometry": { "type": "Point", "coordinates": [ -2.9300443, 53.4103299 ] } },
{ "type": "Feature", "properties": { "osm_id": "2523807510", "code": 2302, "fclass": "fast_food", "name": "Philpotts Sandwiches" }, "geometry": { "type": "Point", "coordinates": [ -1.8971084, 52.4825429 ] } },
{ "type": "Feature", "properties": { "osm_id": "4404170917", "code": 2302, "fclass": "fast_food", "name": "Golden City" }, "geometry": { "type": "Point", "coordinates": [ -2.5111892, 51.4059082 ] } },
{ "type": "Feature", "properties": { "osm_id": "4404180801", "code": 2302, "fclass": "fast_food", "name": "Intermezzo Express" }, "geometry": { "type": "Point", "coordinates": [ -2.3626608, 51.3829372 ] } },
{ "type": "Feature", "properties": { "osm_id": "4404218966", "code": 2302, "fclass": "fast_food", "name": "Sweet Chillies" }, "geometry": { "type": "Point", "coordinates": [ -2.4794774, 51.287346 ] } },
{ "type": "Feature", "properties": { "osm_id": "2242405620", "code": 2302, "fclass": "fast_food", "name": "Spice of Romsey" }, "geometry": { "type": "Point", "coordinates": [ -1.4755273, 50.995573 ] } },
{ "type": "Feature", "properties": { "osm_id": "3839022961", "code": 2302, "fclass": "fast_food", "name": "Jennifers Takeaway" }, "geometry": { "type": "Point", "coordinates": [ -1.9196526, 54.5471129 ] } },
{ "type": "Feature", "properties": { "osm_id": "1038499891", "code": 2302, "fclass": "fast_food", "name": "McDonald's" }, "geometry": { "type": "Point", "coordinates": [ 1.2927065, 52.6271956 ] } },
{ "type": "Feature", "properties": { "osm_id": "2523807520", "code": 2302, "fclass": "fast_food", "name": "Tucker's" }, "geometry": { "type": "Point", "coordinates": [ -1.895556, 52.4817922 ] } },
{ "type": "Feature", "properties": { "osm_id": "4404275865", "code": 2302, "fclass": "fast_food", "name": "Mr D's Takeaway" }, "geometry": { "type": "Point", "coordinates": [ -2.3701023, 51.3836088 ] } },
{ "type": "Feature", "properties": { "osm_id": "3839103671", "code": 2302, "fclass": "fast_food", "name": "Chop Suey House" }, "geometry": { "type": "Point", "coordinates": [ -1.9237222, 54.5455585 ] } },
{ "type": "Feature", "properties": { "osm_id": "4404278336", "code": 2302, "fclass": "fast_food", "name": "The Royal Dragon" }, "geometry": { "type": "Point", "coordinates": [ -2.385277, 51.371271 ] } },
{ "type": "Feature", "properties": { "osm_id": "4404284892", "code": 2302, "fclass": "fast_food", "name": "Keynsham Fish Bar" }, "geometry": { "type": "Point", "coordinates": [ -2.4979611, 51.4149291 ] } },
{ "type": "Feature", "properties": { "osm_id": "647051380", "code": 2302, "fclass": "fast_food", "name": "Prime Burger" }, "geometry": { "type": "Point", "coordinates": [ -0.126353, 51.532096 ] } },
{ "type": "Feature", "properties": { "osm_id": "4404298387", "code": 2302, "fclass": "fast_food", "name": "Seafood Plus" }, "geometry": { "type": "Point", "coordinates": [ -2.4953723, 51.3011205 ] } },
{ "type": "Feature", "properties": { "osm_id": "317768296", "code": 2302, "fclass": "fast_food", "name": "Fish & Chips" }, "geometry": { "type": "Point", "coordinates": [ -1.7931301, 50.7483056 ] } },
{ "type": "Feature", "properties": { "osm_id": "4404305613", "code": 2302, "fclass": "fast_food", "name": "Gong Fu Noodle Bar" }, "geometry": { "type": "Point", "coordinates": [ -2.3632509, 51.3814931 ] } },
{ "type": "Feature", "properties": { "osm_id": "4404305842", "code": 2302, "fclass": "fast_food", "name": "Peri Peri Sizzler" }, "geometry": { "type": "Point", "coordinates": [ -2.362819, 51.3815536 ] } },
{ "type": "Feature", "properties": { "osm_id": "4404339997", "code": 2302, "fclass": "fast_food", "name": "Cheong Sing" }, "geometry": { "type": "Point", "coordinates": [ -2.3791381, 51.3776689 ] } },
{ "type": "Feature", "properties": { "osm_id": "2242418996", "code": 2302, "fclass": "fast_food", "name": "Chef Peking" }, "geometry": { "type": "Point", "coordinates": [ -1.4896679, 50.9903766 ] } },
{ "type": "Feature", "properties": { "osm_id": "3638795834", "code": 2302, "fclass": "fast_food", "name": "Frurt Frozen Yogurt" }, "geometry": { "type": "Point", "coordinates": [ -2.243423, 53.474217 ] } },
{ "type": "Feature", "properties": { "osm_id": "2928517062", "code": 2302, "fclass": "fast_food", "name": "Chicken.com" }, "geometry": { "type": "Point", "coordinates": [ -1.8884694, 52.4778502 ] } },
{ "type": "Feature", "properties": { "osm_id": "2928586155", "code": 2302, "fclass": "fast_food", "name": "Olive Pizza" }, "geometry": { "type": "Point", "coordinates": [ -1.8722679, 52.5034281 ] } },
{ "type": "Feature", "properties": { "osm_id": "4404765180", "code": 2302, "fclass": "fast_food", "name": "Choy Hung House" }, "geometry": { "type": "Point", "coordinates": [ -5.1046693, 50.1684357 ] } },
{ "type": "Feature", "properties": { "osm_id": "647074219", "code": 2302, "fclass": "fast_food", "name": "KFC" }, "geometry": { "type": "Point", "coordinates": [ -0.23725, 51.506323 ] } },
{ "type": "Feature", "properties": { "osm_id": "1326930460", "code": 2302, "fclass": "fast_food", "name": null }, "geometry": { "type": "Point", "coordinates": [ 1.3140185, 51.1244235 ] } },
{ "type": "Feature", "properties": { "osm_id": "2928586158", "code": 2302, "fclass": "fast_food", "name": "Wing Sing" }, "geometry": { "type": "Point", "coordinates": [ -1.872182, 52.5034703 ] } },
{ "type": "Feature", "properties": { "osm_id": "3352523398", "code": 2302, "fclass": "fast_food", "name": "The Fryer at the Bath Inn" }, "geometry": { "type": "Point", "coordinates": [ -1.1377813, 52.9553307 ] } },
{ "type": "Feature", "properties": { "osm_id": "4404776930", "code": 2302, "fclass": "fast_food", "name": "Red Chilli Indian Takeaway" }, "geometry": { "type": "Point", "coordinates": [ -5.1047804, 50.1684802 ] } },
{ "type": "Feature", "properties": { "osm_id": "3352536854", "code": 2302, "fclass": "fast_food", "name": "Manhattans Pizza" }, "geometry": { "type": "Point", "coordinates": [ -1.1892035, 50.8525383 ] } },
{ "type": "Feature", "properties": { "osm_id": "647222501", "code": 2302, "fclass": "fast_food", "name": "Subway" }, "geometry": { "type": "Point", "coordinates": [ -0.2306493, 51.762637 ] } },
{ "type": "Feature", "properties": { "osm_id": "4404817775", "code": 2302, "fclass": "fast_food", "name": "McDonalds" }, "geometry": { "type": "Point", "coordinates": [ 0.5171761, 51.2709177 ] } },
{ "type": "Feature", "properties": { "osm_id": "4404817782", "code": 2302, "fclass": "fast_food", "name": "Fish & Chips" }, "geometry": { "type": "Point", "coordinates": [ 0.5170432, 51.2705583 ] } },
{ "type": "Feature", "properties": { "osm_id": "647225417", "code": 2302, "fclass": "fast_food", "name": "Five Star Wook" }, "geometry": { "type": "Point", "coordinates": [ -1.7207979, 53.7703846 ] } },
{ "type": "Feature", "properties": { "osm_id": "4173236569", "code": 2302, "fclass": "fast_food", "name": "Domino's Pizza" }, "geometry": { "type": "Point", "coordinates": [ -1.033927, 50.8779156 ] } },
{ "type": "Feature", "properties": { "osm_id": "3352686441", "code": 2302, "fclass": "fast_food", "name": "Kings Pukka Tukka" }, "geometry": { "type": "Point", "coordinates": [ -0.0066222, 51.5329436 ] } },
{ "type": "Feature", "properties": { "osm_id": "2525021001", "code": 2302, "fclass": "fast_food", "name": null }, "geometry": { "type": "Point", "coordinates": [ -1.2985968, 54.6033831 ] } },
{ "type": "Feature", "properties": { "osm_id": "2929158219", "code": 2302, "fclass": "fast_food", "name": "Bampton Fish Bar" }, "geometry": { "type": "Point", "coordinates": [ -3.4856064, 50.9902782 ] } },
{ "type": "Feature", "properties": { "osm_id": "647401742", "code": 2302, "fclass": "fast_food", "name": "Subway" }, "geometry": { "type": "Point", "coordinates": [ -0.225486, 51.505388 ] } },
{ "type": "Feature", "properties": { "osm_id": "2242679198", "code": 2302, "fclass": "fast_food", "name": "Turkish Delight" }, "geometry": { "type": "Point", "coordinates": [ -1.1506639, 52.9610228 ] } },
{ "type": "Feature", "properties": { "osm_id": "4404887791", "code": 2302, "fclass": "fast_food", "name": "Way Yin" }, "geometry": { "type": "Point", "coordinates": [ 0.4199321, 51.2493036 ] } },
{ "type": "Feature", "properties": { "osm_id": "1877687233", "code": 2302, "fclass": "fast_food", "name": null }, "geometry": { "type": "Point", "coordinates": [ -1.2981788, 53.697582 ] } },
{ "type": "Feature", "properties": { "osm_id": "2242679202", "code": 2302, "fclass": "fast_food", "name": "City Grill" }, "geometry": { "type": "Point", "coordinates": [ -1.1507955, 52.9612524 ] } },
{ "type": "Feature", "properties": { "osm_id": "259777682", "code": 2302, "fclass": "fast_food", "name": "Miss Millies" }, "geometry": { "type": "Point", "coordinates": [ -2.5078034, 51.4812719 ] } },
{ "type": "Feature", "properties": { "osm_id": "647414985", "code": 2302, "fclass": "fast_food", "name": "Eat Well" }, "geometry": { "type": "Point", "coordinates": [ 0.7090544, 51.5499955 ] } },
{ "type": "Feature", "properties": { "osm_id": "1877939964", "code": 2302, "fclass": "fast_food", "name": null }, "geometry": { "type": "Point", "coordinates": [ -1.5359894, 53.797298 ] } },
{ "type": "Feature", "properties": { "osm_id": "1878115955", "code": 2302, "fclass": "fast_food", "name": null }, "geometry": { "type": "Point", "coordinates": [ -1.7665681, 53.6695732 ] } },
{ "type": "Feature", "properties": { "osm_id": "2525200679", "code": 2302, "fclass": "fast_food", "name": "Spicy Grill" }, "geometry": { "type": "Point", "coordinates": [ -0.4732221, 52.1359164 ] } },
{ "type": "Feature", "properties": { "osm_id": "3896034", "code": 2302, "fclass": "fast_food", "name": "Gourmet Pizza" }, "geometry": { "type": "Point", "coordinates": [ -1.1484052, 50.6608739 ] } },
{ "type": "Feature", "properties": { "osm_id": "2242686203", "code": 2302, "fclass": "fast_food", "name": "Chez Coor's" }, "geometry": { "type": "Point", "coordinates": [ -1.1508667, 52.9613778 ] } },
{ "type": "Feature", "properties": { "osm_id": "1878553647", "code": 2302, "fclass": "fast_food", "name": null }, "geometry": { "type": "Point", "coordinates": [ -1.2915121, 53.6909087 ] } },
{ "type": "Feature", "properties": { "osm_id": "318087946", "code": 2302, "fclass": "fast_food", "name": "Dominos Pizza" }, "geometry": { "type": "Point", "coordinates": [ 0.1328023, 51.7821756 ] } },
{ "type": "Feature", "properties": { "osm_id": "393127654", "code": 2302, "fclass": "fast_food", "name": "Konya's Gold" }, "geometry": { "type": "Point", "coordinates": [ -1.9136675, 52.4889068 ] } },
{ "type": "Feature", "properties": { "osm_id": "2929687143", "code": 2302, "fclass": "fast_food", "name": null }, "geometry": { "type": "Point", "coordinates": [ -2.6789504, 52.9697656 ] } },
{ "type": "Feature", "properties": { "osm_id": "4174113477", "code": 2302, "fclass": "fast_food", "name": "The Butty Bar" }, "geometry": { "type": "Point", "coordinates": [ -3.1793204, 53.3898345 ] } },
{ "type": "Feature", "properties": { "osm_id": "1878810120", "code": 2302, "fclass": "fast_food", "name": "Dominos" }, "geometry": { "type": "Point", "coordinates": [ 1.7286985, 52.6052487 ] } },
{ "type": "Feature", "properties": { "osm_id": "3639549454", "code": 2302, "fclass": "fast_food", "name": "Charlestown Chippy" }, "geometry": { "type": "Point", "coordinates": [ -2.1924138, 53.5236514 ] } },
{ "type": "Feature", "properties": { "osm_id": "260026687", "code": 2302, "fclass": "fast_food", "name": "Burger King" }, "geometry": { "type": "Point", "coordinates": [ 1.1572366, 51.093681 ] } },
{ "type": "Feature", "properties": { "osm_id": "393178626", "code": 2302, "fclass": "fast_food", "name": "168" }, "geometry": { "type": "Point", "coordinates": [ -1.540442, 53.7773311 ] } },
{ "type": "Feature", "properties": { "osm_id": "1327268697", "code": 2302, "fclass": "fast_food", "name": "The Cod Squad" }, "geometry": { "type": "Point", "coordinates": [ -1.0689906, 50.7862497 ] } },
{ "type": "Feature", "properties": { "osm_id": "2525940926", "code": 2302, "fclass": "fast_food", "name": "Andrea's Fish Bar" }, "geometry": { "type": "Point", "coordinates": [ -1.968642, 52.4373266 ] } },
{ "type": "Feature", "properties": { "osm_id": "2525940932", "code": 2302, "fclass": "fast_food", "name": "Balti Castle" }, "geometry": { "type": "Point", "coordinates": [ -1.9705401, 52.438128 ] } },
{ "type": "Feature", "properties": { "osm_id": "2525940937", "code": 2302, "fclass": "fast_food", "name": "Beckbury Fryer" }, "geometry": { "type": "Point", "coordinates": [ -1.9694365, 52.438411 ] } },
{ "type": "Feature", "properties": { "osm_id": "2244595741", "code": 2302, "fclass": "fast_food", "name": "Grillish" }, "geometry": { "type": "Point", "coordinates": [ -1.1501427, 52.9600805 ] } },
{ "type": "Feature", "properties": { "osm_id": "2525940967", "code": 2302, "fclass": "fast_food", "name": "Castle Snax" }, "geometry": { "type": "Point", "coordinates": [ -1.9698969, 52.4369521 ] } },
{ "type": "Feature", "properties": { "osm_id": "3353165564", "code": 2302, "fclass": "fast_food", "name": "Cooking for the People" }, "geometry": { "type": "Point", "coordinates": [ -1.2939952, 53.0211239 ] } },
{ "type": "Feature", "properties": { "osm_id": "2525940970", "code": 2302, "fclass": "fast_food", "name": "Chilli Peppers" }, "geometry": { "type": "Point", "coordinates": [ -1.971278, 52.438055 ] } },
{ "type": "Feature", "properties": { "osm_id": "2244595765", "code": 2302, "fclass": "fast_food", "name": "Foodexpress.co" }, "geometry": { "type": "Point", "coordinates": [ -1.1503271, 52.960446 ] } },
{ "type": "Feature", "properties": { "osm_id": "2525940972", "code": 2302, "fclass": "fast_food", "name": "China Garden" }, "geometry": { "type": "Point", "coordinates": [ -1.9706171, 52.4380941 ] } },
{ "type": "Feature", "properties": { "osm_id": "1619094076", "code": 2302, "fclass": "fast_food", "name": "St Michael's Fisheries" }, "geometry": { "type": "Point", "coordinates": [ -1.5769459, 53.8189507 ] } },
{ "type": "Feature", "properties": { "osm_id": "2244595772", "code": 2302, "fclass": "fast_food", "name": "Plava Laguna" }, "geometry": { "type": "Point", "coordinates": [ -1.1504008, 52.9605402 ] } },
{ "type": "Feature", "properties": { "osm_id": "260071806", "code": 2302, "fclass": "fast_food", "name": "The White Hart" }, "geometry": { "type": "Point", "coordinates": [ -0.4720782, 51.7583327 ] } },
{ "type": "Feature", "properties": { "osm_id": "648286546", "code": 2302, "fclass": "fast_food", "name": "Savoy Fish & Chips" }, "geometry": { "type": "Point", "coordinates": [ -0.249115, 51.515041 ] } },
{ "type": "Feature", "properties": { "osm_id": "3841830907", "code": 2302, "fclass": "fast_food", "name": "Five Guys" }, "geometry": { "type": "Point", "coordinates": [ -2.5842931, 51.4585609 ] } },
{ "type": "Feature", "properties": { "osm_id": "648387395", "code": 2302, "fclass": "fast_food", "name": "Greggs" }, "geometry": { "type": "Point", "coordinates": [ -0.249187, 51.514326 ] } },
{ "type": "Feature", "properties": { "osm_id": "804413125", "code": 2302, "fclass": "fast_food", "name": "Magic Chef" }, "geometry": { "type": "Point", "coordinates": [ 1.075272, 51.2818403 ] } },
{ "type": "Feature", "properties": { "osm_id": "3639998113", "code": 2302, "fclass": "fast_food", "name": "Jackies Chippy" }, "geometry": { "type": "Point", "coordinates": [ -2.1997904, 53.5243947 ] } },
{ "type": "Feature", "properties": { "osm_id": "804426318", "code": 2302, "fclass": "fast_food", "name": "Jolly Chef" }, "geometry": { "type": "Point", "coordinates": [ 1.1214329, 51.3001511 ] } },
{ "type": "Feature", "properties": { "osm_id": "3841830915", "code": 2302, "fclass": "fast_food", "name": "Pret A Manger" }, "geometry": { "type": "Point", "coordinates": [ -2.5850516, 51.4588939 ] } },
{ "type": "Feature", "properties": { "osm_id": "3639998583", "code": 2302, "fclass": "fast_food", "name": "KFC" }, "geometry": { "type": "Point", "coordinates": [ -1.5670593, 54.7038227 ] } },
{ "type": "Feature", "properties": { "osm_id": "260124921", "code": 2302, "fclass": "fast_food", "name": "McDonald's" }, "geometry": { "type": "Point", "coordinates": [ -0.0595781, 51.514891 ] } },
{ "type": "Feature", "properties": { "osm_id": "4405789592", "code": 2302, "fclass": "fast_food", "name": "Vujon Restaurant and Takeaway" }, "geometry": { "type": "Point", "coordinates": [ -1.9921418, 53.8960099 ] } },
{ "type": "Feature", "properties": { "osm_id": "804477857", "code": 2302, "fclass": "fast_food", "name": null }, "geometry": { "type": "Point", "coordinates": [ -0.6027049, 53.024637 ] } },
{ "type": "Feature", "properties": { "osm_id": "4405806489", "code": 2302, "fclass": "fast_food", "name": "Bridge Road Fisheries" }, "geometry": { "type": "Point", "coordinates": [ -1.9919177, 53.8959669 ] } },
{ "type": "Feature", "properties": { "osm_id": "2525941031", "code": 2302, "fclass": "fast_food", "name": "Spicemenu" }, "geometry": { "type": "Point", "coordinates": [ -1.9683144, 52.4373027 ] } },
{ "type": "Feature", "properties": { "osm_id": "1327890647", "code": 2302, "fclass": "fast_food", "name": "Munchies" }, "geometry": { "type": "Point", "coordinates": [ -4.4775504, 50.8928938 ] } },
{ "type": "Feature", "properties": { "osm_id": "3353955802", "code": 2302, "fclass": "fast_food", "name": "Lucky Fish Bar" }, "geometry": { "type": "Point", "coordinates": [ -0.2391769, 51.3940476 ] } },
{ "type": "Feature", "properties": { "osm_id": "2525941051", "code": 2302, "fclass": "fast_food", "name": "Weoley Fish Bar" }, "geometry": { "type": "Point", "coordinates": [ -1.9711967, 52.4380498 ] } },
{ "type": "Feature", "properties": { "osm_id": "2245035457", "code": 2302, "fclass": "fast_food", "name": "The Bread Shop" }, "geometry": { "type": "Point", "coordinates": [ -1.1939285, 52.9546878 ] } },
{ "type": "Feature", "properties": { "osm_id": "2525941057", "code": 2302, "fclass": "fast_food", "name": "Yah Hung" }, "geometry": { "type": "Point", "coordinates": [ -1.9685601, 52.4373206 ] } },
{ "type": "Feature", "properties": { "osm_id": "1879999208", "code": 2302, "fclass": "fast_food", "name": null }, "geometry": { "type": "Point", "coordinates": [ -1.7692257, 53.668344 ] } },
{ "type": "Feature", "properties": { "osm_id": "2525941059", "code": 2302, "fclass": "fast_food", "name": "Yummy Kitchen" }, "geometry": { "type": "Point", "coordinates": [ -1.9692556, 52.4386112 ] } },
{ "type": "Feature", "properties": { "osm_id": "3353955807", "code": 2302, "fclass": "fast_food", "name": "Royal Kebab & Pizza" }, "geometry": { "type": "Point", "coordinates": [ -0.2388566, 51.3941895 ] } },
{ "type": "Feature", "properties": { "osm_id": "4174686179", "code": 2302, "fclass": "fast_food", "name": "Middle Chippy" }, "geometry": { "type": "Point", "coordinates": [ -3.0477057, 53.850652 ] } },
{ "type": "Feature", "properties": { "osm_id": "1879999216", "code": 2302, "fclass": "fast_food", "name": null }, "geometry": { "type": "Point", "coordinates": [ -1.7688752, 53.6685913 ] } },
{ "type": "Feature", "properties": { "osm_id": "1039290570", "code": 2302, "fclass": "fast_food", "name": "Wrap It Up" }, "geometry": { "type": "Point", "coordinates": [ -0.0803242, 51.5173277 ] } },
{ "type": "Feature", "properties": { "osm_id": "4174686181", "code": 2302, "fclass": "fast_food", "name": "Sandwich Express" }, "geometry": { "type": "Point", "coordinates": [ -3.0481276, 53.8504887 ] } },
{ "type": "Feature", "properties": { "osm_id": "648859958", "code": 2302, "fclass": "fast_food", "name": "Red Ruby Chinese Takeaway" }, "geometry": { "type": "Point", "coordinates": [ -1.5252436, 53.3676264 ] } },
{ "type": "Feature", "properties": { "osm_id": "4406017416", "code": 2302, "fclass": "fast_food", "name": "Food" }, "geometry": { "type": "Point", "coordinates": [ -2.7461347, 54.3283219 ] } },
{ "type": "Feature", "properties": { "osm_id": "1879999240", "code": 2302, "fclass": "fast_food", "name": null }, "geometry": { "type": "Point", "coordinates": [ -1.7565312, 53.6708503 ] } },
{ "type": "Feature", "properties": { "osm_id": "2526028743", "code": 2302, "fclass": "fast_food", "name": "Baguette World" }, "geometry": { "type": "Point", "coordinates": [ -1.8979521, 52.4785212 ] } },
{ "type": "Feature", "properties": { "osm_id": "2526028746", "code": 2302, "fclass": "fast_food", "name": "Bonbon" }, "geometry": { "type": "Point", "coordinates": [ -1.902143, 52.4827963 ] } },
{ "type": "Feature", "properties": { "osm_id": "4406017429", "code": 2302, "fclass": "fast_food", "name": "Subway" }, "geometry": { "type": "Point", "coordinates": [ -2.7466825, 54.3283069 ] } },
{ "type": "Feature", "properties": { "osm_id": "1619276199", "code": 2302, "fclass": "fast_food", "name": "Happy Haddock" }, "geometry": { "type": "Point", "coordinates": [ -1.7793299, 53.7021333 ] } },
{ "type": "Feature", "properties": { "osm_id": "1619303468", "code": 2302, "fclass": "fast_food", "name": "Chipsmiths" }, "geometry": { "type": "Point", "coordinates": [ -0.1591126, 51.3656708 ] } },
{ "type": "Feature", "properties": { "osm_id": "4406158423", "code": 2302, "fclass": "fast_food", "name": "Dragon Wok" }, "geometry": { "type": "Point", "coordinates": [ -2.4688633, 51.2839916 ] } },
{ "type": "Feature", "properties": { "osm_id": "4406160370", "code": 2302, "fclass": "fast_food", "name": "Whitstones Fish And Chips" }, "geometry": { "type": "Point", "coordinates": [ -2.4730682, 51.2794273 ] } },
{ "type": "Feature", "properties": { "osm_id": "4406164560", "code": 2302, "fclass": "fast_food", "name": "Sushi Daily" }, "geometry": { "type": "Point", "coordinates": [ -2.3591251, 51.3831769 ] } },
{ "type": "Feature", "properties": { "osm_id": "2526028796", "code": 2302, "fclass": "fast_food", "name": "Subway" }, "geometry": { "type": "Point", "coordinates": [ -1.9034561, 52.4821038 ] } },
{ "type": "Feature", "properties": { "osm_id": "4406169373", "code": 2302, "fclass": "fast_food", "name": "Yummy House" }, "geometry": { "type": "Point", "coordinates": [ -2.3583112, 51.3895551 ] } },
{ "type": "Feature", "properties": { "osm_id": "1880285960", "code": 2302, "fclass": "fast_food", "name": null }, "geometry": { "type": "Point", "coordinates": [ -0.0743369, 51.379809 ] } },
{ "type": "Feature", "properties": { "osm_id": "4406173261", "code": 2302, "fclass": "fast_food", "name": "Fusion Takeaway" }, "geometry": { "type": "Point", "coordinates": [ -2.481513, 51.2856031 ] } },
{ "type": "Feature", "properties": { "osm_id": "4406178683", "code": 2302, "fclass": "fast_food", "name": "Pizza La Vita" }, "geometry": { "type": "Point", "coordinates": [ -2.3802976, 51.3853436 ] } },
{ "type": "Feature", "properties": { "osm_id": "1880285966", "code": 2302, "fclass": "fast_food", "name": null }, "geometry": { "type": "Point", "coordinates": [ -0.0728415, 51.3804795 ] } },
{ "type": "Feature", "properties": { "osm_id": "4406184896", "code": 2302, "fclass": "fast_food", "name": "M&M" }, "geometry": { "type": "Point", "coordinates": [ -2.4990457, 51.4166839 ] } },
{ "type": "Feature", "properties": { "osm_id": "1880614977", "code": 2302, "fclass": "fast_food", "name": "KFC" }, "geometry": { "type": "Point", "coordinates": [ -0.4195856, 51.4810532 ] } },
{ "type": "Feature", "properties": { "osm_id": "2245335128", "code": 2302, "fclass": "fast_food", "name": "Mighty Bites" }, "geometry": { "type": "Point", "coordinates": [ -1.1161873, 52.987923 ] } },
{ "type": "Feature", "properties": { "osm_id": "3842362746", "code": 2302, "fclass": "fast_food", "name": "Alverton Fisheries" }, "geometry": { "type": "Point", "coordinates": [ -1.5812534, 54.5466415 ] } },
{ "type": "Feature", "properties": { "osm_id": "4175001899", "code": 2302, "fclass": "fast_food", "name": "Moorside Fisheries" }, "geometry": { "type": "Point", "coordinates": [ -0.9308835, 54.2697505 ] } },
{ "type": "Feature", "properties": { "osm_id": "3842362750", "code": 2302, "fclass": "fast_food", "name": "Peking Chinese" }, "geometry": { "type": "Point", "coordinates": [ -1.5813753, 54.546651 ] } },
{ "type": "Feature", "properties": { "osm_id": "1040131134", "code": 2302, "fclass": "fast_food", "name": "Castle Pizza and Chicken House" }, "geometry": { "type": "Point", "coordinates": [ -4.3154842, 50.5032161 ] } },
{ "type": "Feature", "properties": { "osm_id": "4175001914", "code": 2302, "fclass": "fast_food", "name": "Lemon Tree" }, "geometry": { "type": "Point", "coordinates": [ -0.9308644, 54.2688842 ] } },
{ "type": "Feature", "properties": { "osm_id": "3842412825", "code": 2302, "fclass": "fast_food", "name": "Mama Mia's" }, "geometry": { "type": "Point", "coordinates": [ -1.5978889, 54.5402116 ] } },
{ "type": "Feature", "properties": { "osm_id": "4175020485", "code": 2302, "fclass": "fast_food", "name": "Shan Woo" }, "geometry": { "type": "Point", "coordinates": [ -1.3949432, 54.0948408 ] } },
{ "type": "Feature", "properties": { "osm_id": "2931976862", "code": 2302, "fclass": "fast_food", "name": "Royal Ribs" }, "geometry": { "type": "Point", "coordinates": [ 0.0054406, 51.6190256 ] } },
{ "type": "Feature", "properties": { "osm_id": "2931978802", "code": 2302, "fclass": "fast_food", "name": "Fish 'n' Chick'n" }, "geometry": { "type": "Point", "coordinates": [ 0.0058885, 51.619024 ] } },
{ "type": "Feature", "properties": { "osm_id": "2931980056", "code": 2302, "fclass": "fast_food", "name": "Oriental Chef" }, "geometry": { "type": "Point", "coordinates": [ 0.006138, 51.6190156 ] } },
{ "type": "Feature", "properties": { "osm_id": "2931981148", "code": 2302, "fclass": "fast_food", "name": "Vujon" }, "geometry": { "type": "Point", "coordinates": [ 0.0041692, 51.6185676 ] } },
{ "type": "Feature", "properties": { "osm_id": "3641563331", "code": 2302, "fclass": "fast_food", "name": "Blossom Court" }, "geometry": { "type": "Point", "coordinates": [ -1.5108329, 52.310377 ] } },
{ "type": "Feature", "properties": { "osm_id": "4406640042", "code": 2302, "fclass": "fast_food", "name": "Curry Garden" }, "geometry": { "type": "Point", "coordinates": [ -2.3812602, 51.3571055 ] } },
{ "type": "Feature", "properties": { "osm_id": "4406656378", "code": 2302, "fclass": "fast_food", "name": "Hong Kong Chef" }, "geometry": { "type": "Point", "coordinates": [ -2.5449939, 51.3218184 ] } },
{ "type": "Feature", "properties": { "osm_id": "4406663992", "code": 2302, "fclass": "fast_food", "name": "Uncle Lee Chinese Takeaway" }, "geometry": { "type": "Point", "coordinates": [ -2.4878823, 51.4088171 ] } },
{ "type": "Feature", "properties": { "osm_id": "3842598887", "code": 2302, "fclass": "fast_food", "name": "New Peking House" }, "geometry": { "type": "Point", "coordinates": [ -2.2258856, 53.4169134 ] } },
{ "type": "Feature", "properties": { "osm_id": "4406663993", "code": 2302, "fclass": "fast_food", "name": "Hotcha" }, "geometry": { "type": "Point", "coordinates": [ -2.3709628, 51.3796386 ] } },
{ "type": "Feature", "properties": { "osm_id": "649717768", "code": 2302, "fclass": "fast_food", "name": "Mekka Hut" }, "geometry": { "type": "Point", "coordinates": [ -0.9498224, 51.4497131 ] } },
{ "type": "Feature", "properties": { "osm_id": "4406680167", "code": 2302, "fclass": "fast_food", "name": "Pizza Hut" }, "geometry": { "type": "Point", "coordinates": [ -2.3715565, 51.3798667 ] } },
{ "type": "Feature", "properties": { "osm_id": "4406683500", "code": 2302, "fclass": "fast_food", "name": "The Haynes" }, "geometry": { "type": "Point", "coordinates": [ -2.5110622, 51.3249794 ] } },
{ "type": "Feature", "properties": { "osm_id": "4175051927", "code": 2302, "fclass": "fast_food", "name": "Star Fast Food" }, "geometry": { "type": "Point", "coordinates": [ -0.7848112, 54.1323755 ] } },
{ "type": "Feature", "properties": { "osm_id": "2526585882", "code": 2302, "fclass": "fast_food", "name": "Shake Shack" }, "geometry": { "type": "Point", "coordinates": [ -0.1225568, 51.5117522 ] } },
{ "type": "Feature", "properties": { "osm_id": "4406697993", "code": 2302, "fclass": "fast_food", "name": "The Bagel Dude" }, "geometry": { "type": "Point", "coordinates": [ -2.399621, 51.3858024 ] } },
{ "type": "Feature", "properties": { "osm_id": "3842664433", "code": 2302, "fclass": "fast_food", "name": "Pizza Perfect" }, "geometry": { "type": "Point", "coordinates": [ -1.5602643, 54.5367207 ] } },
{ "type": "Feature", "properties": { "osm_id": "4406714398", "code": 2302, "fclass": "fast_food", "name": "China Garden" }, "geometry": { "type": "Point", "coordinates": [ -2.5005287, 51.3054411 ] } },
{ "type": "Feature", "properties": { "osm_id": "260283878", "code": 2302, "fclass": "fast_food", "name": "KFC" }, "geometry": { "type": "Point", "coordinates": [ -0.1439007, 51.540145 ] } },
{ "type": "Feature", "properties": { "osm_id": "2246147512", "code": 2302, "fclass": "fast_food", "name": "Marino's Fish Bar" }, "geometry": { "type": "Point", "coordinates": [ 0.8882838, 51.1634367 ] } },
{ "type": "Feature", "properties": { "osm_id": "4175051947", "code": 2302, "fclass": "fast_food", "name": "Yan's" }, "geometry": { "type": "Point", "coordinates": [ -0.7824294, 54.1326614 ] } },
{ "type": "Feature", "properties": { "osm_id": "4175051949", "code": 2302, "fclass": "fast_food", "name": "Pizza Master" }, "geometry": { "type": "Point", "coordinates": [ -0.7849855, 54.1325908 ] } },
{ "type": "Feature", "properties": { "osm_id": "4406722096", "code": 2302, "fclass": "fast_food", "name": "Pollocks @ The Belvoir" }, "geometry": { "type": "Point", "coordinates": [ -2.3766899, 51.3815914 ] } },
{ "type": "Feature", "properties": { "osm_id": "3355063421", "code": 2302, "fclass": "fast_food", "name": "Greggs" }, "geometry": { "type": "Point", "coordinates": [ -0.1870906, 51.1141378 ] } },
{ "type": "Feature", "properties": { "osm_id": "3842691354", "code": 2302, "fclass": "fast_food", "name": "Adam's Pizzeria" }, "geometry": { "type": "Point", "coordinates": [ -1.5524338, 54.5367126 ] } },
{ "type": "Feature", "properties": { "osm_id": "3355083921", "code": 2302, "fclass": "fast_food", "name": "Subway" }, "geometry": { "type": "Point", "coordinates": [ -2.5695667, 51.9275711 ] } },
{ "type": "Feature", "properties": { "osm_id": "4406796110", "code": 2302, "fclass": "fast_food", "name": "The Chip Inn" }, "geometry": { "type": "Point", "coordinates": [ -2.4805551, 51.2864017 ] } },
{ "type": "Feature", "properties": { "osm_id": "4406799362", "code": 2302, "fclass": "fast_food", "name": "Happy Garden" }, "geometry": { "type": "Point", "coordinates": [ -2.3844086, 51.3727865 ] } },
{ "type": "Feature", "properties": { "osm_id": "4406801959", "code": 2302, "fclass": "fast_food", "name": "Slow Boats" }, "geometry": { "type": "Point", "coordinates": [ -2.5083913, 51.4086716 ] } },
{ "type": "Feature", "properties": { "osm_id": "4406802820", "code": 2302, "fclass": "fast_food", "name": "Chish And Fips" }, "geometry": { "type": "Point", "coordinates": [ -2.4589392, 51.2890911 ] } },
{ "type": "Feature", "properties": { "osm_id": "4406825992", "code": 2302, "fclass": "fast_food", "name": "Golden Fields" }, "geometry": { "type": "Point", "coordinates": [ -2.5019234, 51.3076971 ] } },
{ "type": "Feature", "properties": { "osm_id": "3643920754", "code": 2302, "fclass": "fast_food", "name": "Alan's Fish & Chips" }, "geometry": { "type": "Point", "coordinates": [ -0.0174261, 51.5167735 ] } },
{ "type": "Feature", "properties": { "osm_id": "3842732277", "code": 2302, "fclass": "fast_food", "name": "Hong Tu" }, "geometry": { "type": "Point", "coordinates": [ -1.5513334, 54.5389452 ] } },
{ "type": "Feature", "properties": { "osm_id": "3842732278", "code": 2302, "fclass": "fast_food", "name": "North Road Fish Bar" }, "geometry": { "type": "Point", "coordinates": [ -1.5512932, 54.5390043 ] } },
{ "type": "Feature", "properties": { "osm_id": "650000193", "code": 2302, "fclass": "fast_food", "name": "Crossens Tandori" }, "geometry": { "type": "Point", "coordinates": [ -2.9485047, 53.6714995 ] } },
{ "type": "Feature", "properties": { "osm_id": "2527966908", "code": 2302, "fclass": "fast_food", "name": "Lolly's Rolls" }, "geometry": { "type": "Point", "coordinates": [ -1.4740434, 52.9224493 ] } },
{ "type": "Feature", "properties": { "osm_id": "260418387", "code": 2302, "fclass": "fast_food", "name": null }, "geometry": { "type": "Point", "coordinates": [ -1.8245348, 52.4864134 ] } },
{ "type": "Feature", "properties": { "osm_id": "1041103886", "code": 2302, "fclass": "fast_food", "name": "Domino's" }, "geometry": { "type": "Point", "coordinates": [ -0.0702484, 52.218503 ] } },
{ "type": "Feature", "properties": { "osm_id": "4175138071", "code": 2302, "fclass": "fast_food", "name": "Cafe Royal" }, "geometry": { "type": "Point", "coordinates": [ -1.6569364, 54.2217375 ] } },
{ "type": "Feature", "properties": { "osm_id": "1329636484", "code": 2302, "fclass": "fast_food", "name": "Macdonalds Cafe" }, "geometry": { "type": "Point", "coordinates": [ -0.0278873, 53.5614733 ] } },
{ "type": "Feature", "properties": { "osm_id": "3645154114", "code": 2302, "fclass": "fast_food", "name": "Trident Fish Bar" }, "geometry": { "type": "Point", "coordinates": [ 0.0873021, 51.4298803 ] } },
{ "type": "Feature", "properties": { "osm_id": "2248176630", "code": 2302, "fclass": "fast_food", "name": "Mission Burrito" }, "geometry": { "type": "Point", "coordinates": [ -2.3637436, 51.3812317 ] } },
{ "type": "Feature", "properties": { "osm_id": "2933957001", "code": 2302, "fclass": "fast_food", "name": "McDonald's" }, "geometry": { "type": "Point", "coordinates": [ 0.7354807, 51.5519638 ] } },
{ "type": "Feature", "properties": { "osm_id": "805515651", "code": 2302, "fclass": "fast_food", "name": "Long Lane Fish Bar" }, "geometry": { "type": "Point", "coordinates": [ -0.0867589, 51.4994728 ] } },
{ "type": "Feature", "properties": { "osm_id": "2934163135", "code": 2302, "fclass": "fast_food", "name": "Shahjahan Diner & Takeway" }, "geometry": { "type": "Point", "coordinates": [ -1.3573699, 53.4288471 ] } },
{ "type": "Feature", "properties": { "osm_id": "650341168", "code": 2302, "fclass": "fast_food", "name": "Tossed" }, "geometry": { "type": "Point", "coordinates": [ -0.0796774, 51.515752 ] } },
{ "type": "Feature", "properties": { "osm_id": "805572191", "code": 2302, "fclass": "fast_food", "name": "Village Chippy" }, "geometry": { "type": "Point", "coordinates": [ -2.6520815, 53.1160623 ] } },
{ "type": "Feature", "properties": { "osm_id": "2528358648", "code": 2302, "fclass": "fast_food", "name": "Devanys Fish & Chips" }, "geometry": { "type": "Point", "coordinates": [ -1.2713065, 53.8765301 ] } },
{ "type": "Feature", "properties": { "osm_id": "2528482727", "code": 2302, "fclass": "fast_food", "name": null }, "geometry": { "type": "Point", "coordinates": [ -1.1961981, 53.1713331 ] } },
{ "type": "Feature", "properties": { "osm_id": "3645952212", "code": 2302, "fclass": "fast_food", "name": "Kebabish" }, "geometry": { "type": "Point", "coordinates": [ -1.4633864, 53.3866317 ] } },
{ "type": "Feature", "properties": { "osm_id": "3646115826", "code": 2302, "fclass": "fast_food", "name": "Domino's" }, "geometry": { "type": "Point", "coordinates": [ -0.9046222, 51.5391232 ] } },
{ "type": "Feature", "properties": { "osm_id": "4407500542", "code": 2302, "fclass": "fast_food", "name": "The Chippy" }, "geometry": { "type": "Point", "coordinates": [ -1.4430606, 53.2345123 ] } },
{ "type": "Feature", "properties": { "osm_id": "2934305805", "code": 2302, "fclass": "fast_food", "name": "Pollys Cottage" }, "geometry": { "type": "Point", "coordinates": [ -1.7939251, 53.0894725 ] } },
{ "type": "Feature", "properties": { "osm_id": "1330591939", "code": 2302, "fclass": "fast_food", "name": "Pound A Curry" }, "geometry": { "type": "Point", "coordinates": [ -0.4676044, 52.140103 ] } },
{ "type": "Feature", "properties": { "osm_id": "1330591941", "code": 2302, "fclass": "fast_food", "name": "Golden Dragon" }, "geometry": { "type": "Point", "coordinates": [ -0.4676179, 52.1400196 ] } },
{ "type": "Feature", "properties": { "osm_id": "1330591946", "code": 2302, "fclass": "fast_food", "name": "Peri Peri Grill and Pizza" }, "geometry": { "type": "Point", "coordinates": [ -0.4676721, 52.1399298 ] } },
{ "type": "Feature", "properties": { "osm_id": "4175737131", "code": 2302, "fclass": "fast_food", "name": "A Taste Of Solway" }, "geometry": { "type": "Point", "coordinates": [ -3.3891606, 54.8622438 ] } },
{ "type": "Feature", "properties": { "osm_id": "3844414366", "code": 2302, "fclass": "fast_food", "name": "SFC" }, "geometry": { "type": "Point", "coordinates": [ -1.8689266, 50.7347942 ] } },
{ "type": "Feature", "properties": { "osm_id": "1330593182", "code": 2302, "fclass": "fast_food", "name": "Mogal Empire Indian Takeaway" }, "geometry": { "type": "Point", "coordinates": [ -0.0888091, 53.5634445 ] } },
{ "type": "Feature", "properties": { "osm_id": "3844414367", "code": 2302, "fclass": "fast_food", "name": "Subway" }, "geometry": { "type": "Point", "coordinates": [ -1.8671796, 50.7356144 ] } },
{ "type": "Feature", "properties": { "osm_id": "1330599191", "code": 2302, "fclass": "fast_food", "name": "Fish and Chik (takeaway)" }, "geometry": { "type": "Point", "coordinates": [ -0.0885156, 53.5627932 ] } },
{ "type": "Feature", "properties": { "osm_id": "1330602045", "code": 2302, "fclass": "fast_food", "name": "BL's Spice (takeaway)" }, "geometry": { "type": "Point", "coordinates": [ -0.0884625, 53.5628281 ] } },
{ "type": "Feature", "properties": { "osm_id": "1622018283", "code": 2302, "fclass": "fast_food", "name": "Butter Hill Fish & Chips" }, "geometry": { "type": "Point", "coordinates": [ -0.1578445, 51.3700923 ] } },
{ "type": "Feature", "properties": { "osm_id": "3357036307", "code": 2302, "fclass": "fast_food", "name": "Al'Burrito" }, "geometry": { "type": "Point", "coordinates": [ -1.0800568, 50.7868899 ] } },
{ "type": "Feature", "properties": { "osm_id": "1622018325", "code": 2302, "fclass": "fast_food", "name": "China Chef" }, "geometry": { "type": "Point", "coordinates": [ -0.1579547, 51.3701853 ] } },
{ "type": "Feature", "properties": { "osm_id": "3646348438", "code": 2302, "fclass": "fast_food", "name": "Chicken Cottage" }, "geometry": { "type": "Point", "coordinates": [ -1.4633373, 53.3866783 ] } },
{ "type": "Feature", "properties": { "osm_id": "3357036313", "code": 2302, "fclass": "fast_food", "name": "Fortune House" }, "geometry": { "type": "Point", "coordinates": [ -1.0746781, 50.78683 ] } },
{ "type": "Feature", "properties": { "osm_id": "3646348443", "code": 2302, "fclass": "fast_food", "name": "Rajas" }, "geometry": { "type": "Point", "coordinates": [ -1.4631377, 53.3868531 ] } },
{ "type": "Feature", "properties": { "osm_id": "4176165696", "code": 2302, "fclass": "fast_food", "name": "Tower Sandwich Bar" }, "geometry": { "type": "Point", "coordinates": [ -3.0415181, 53.4384144 ] } },
{ "type": "Feature", "properties": { "osm_id": "3844661988", "code": 2302, "fclass": "fast_food", "name": "Frydays" }, "geometry": { "type": "Point", "coordinates": [ -1.5610508, 54.5315878 ] } },
{ "type": "Feature", "properties": { "osm_id": "4176165701", "code": 2302, "fclass": "fast_food", "name": "Kebab & Pizza House" }, "geometry": { "type": "Point", "coordinates": [ -3.0418185, 53.4380948 ] } },
{ "type": "Feature", "properties": { "osm_id": "4407859995", "code": 2302, "fclass": "fast_food", "name": "Sam's" }, "geometry": { "type": "Point", "coordinates": [ -0.809436, 51.8191674 ] } },
{ "type": "Feature", "properties": { "osm_id": "3357406107", "code": 2302, "fclass": "fast_food", "name": null }, "geometry": { "type": "Point", "coordinates": [ 1.2812976, 52.0729781 ] } },
{ "type": "Feature", "properties": { "osm_id": "3646348452", "code": 2302, "fclass": "fast_food", "name": "Shahi Kebabs" }, "geometry": { "type": "Point", "coordinates": [ -1.4593665, 53.3904331 ] } },
{ "type": "Feature", "properties": { "osm_id": "4407876597", "code": 2302, "fclass": "fast_food", "name": "KFC" }, "geometry": { "type": "Point", "coordinates": [ -0.8093042, 51.8194462 ] } },
{ "type": "Feature", "properties": { "osm_id": "3646348453", "code": 2302, "fclass": "fast_food", "name": "Spital Chippy" }, "geometry": { "type": "Point", "coordinates": [ -1.4591893, 53.3907447 ] } },
{ "type": "Feature", "properties": { "osm_id": "3646348454", "code": 2302, "fclass": "fast_food", "name": "Shaz" }, "geometry": { "type": "Point", "coordinates": [ -1.4588812, 53.3906555 ] } },
{ "type": "Feature", "properties": { "osm_id": "3844677224", "code": 2302, "fclass": "fast_food", "name": "Craig's Pizzeria" }, "geometry": { "type": "Point", "coordinates": [ -1.5637326, 54.5335598 ] } },
{ "type": "Feature", "properties": { "osm_id": "3646348458", "code": 2302, "fclass": "fast_food", "name": "Star Chippy" }, "geometry": { "type": "Point", "coordinates": [ -1.4588319, 53.3912371 ] } },
{ "type": "Feature", "properties": { "osm_id": "3844679284", "code": 2302, "fclass": "fast_food", "name": "Yings" }, "geometry": { "type": "Point", "coordinates": [ -1.5650347, 54.5354252 ] } },
{ "type": "Feature", "properties": { "osm_id": "3357482030", "code": 2302, "fclass": "fast_food", "name": "Golden Castle" }, "geometry": { "type": "Point", "coordinates": [ -1.9464026, 52.4476117 ] } },
{ "type": "Feature", "properties": { "osm_id": "4176313552", "code": 2302, "fclass": "fast_food", "name": "Rainbow" }, "geometry": { "type": "Point", "coordinates": [ -0.631948, 54.4909989 ] } },
{ "type": "Feature", "properties": { "osm_id": "3357482034", "code": 2302, "fclass": "fast_food", "name": "Jade House" }, "geometry": { "type": "Point", "coordinates": [ -1.9470961, 52.4480707 ] } },
{ "type": "Feature", "properties": { "osm_id": "4176313558", "code": 2302, "fclass": "fast_food", "name": "Parade Fisheries" }, "geometry": { "type": "Point", "coordinates": [ -0.6314947, 54.4908727 ] } },
{ "type": "Feature", "properties": { "osm_id": "2250258294", "code": 2302, "fclass": "fast_food", "name": null }, "geometry": { "type": "Point", "coordinates": [ -0.6772898, 50.7865126 ] } },
{ "type": "Feature", "properties": { "osm_id": "4176313564", "code": 2302, "fclass": "fast_food", "name": "Gino's" }, "geometry": { "type": "Point", "coordinates": [ -0.6312212, 54.4908758 ] } },
{ "type": "Feature", "properties": { "osm_id": "2934560093", "code": 2302, "fclass": "fast_food", "name": "Woking Kebabs" }, "geometry": { "type": "Point", "coordinates": [ -0.5566206, 51.3191743 ] } },
{ "type": "Feature", "properties": { "osm_id": "3357569132", "code": 2302, "fclass": "fast_food", "name": "Camden Food Co." }, "geometry": { "type": "Point", "coordinates": [ -0.1330121, 51.5284684 ] } },
{ "type": "Feature", "properties": { "osm_id": "3357569133", "code": 2302, "fclass": "fast_food", "name": "Double Six" }, "geometry": { "type": "Point", "coordinates": [ -0.1328881, 51.5294384 ] } },
{ "type": "Feature", "properties": { "osm_id": "3646372467", "code": 2302, "fclass": "fast_food", "name": "Lana Pizza" }, "geometry": { "type": "Point", "coordinates": [ -1.4525079, 53.4068779 ] } },
{ "type": "Feature", "properties": { "osm_id": "2934610787", "code": 2302, "fclass": "fast_food", "name": "Roosters Piri Piri" }, "geometry": { "type": "Point", "coordinates": [ -0.5558734, 51.3200748 ] } },
{ "type": "Feature", "properties": { "osm_id": "3646372470", "code": 2302, "fclass": "fast_food", "name": "Ecclesfield Chinese Takeaway" }, "geometry": { "type": "Point", "coordinates": [ -1.4574549, 53.4412373 ] } },
{ "type": "Feature", "properties": { "osm_id": "3357569145", "code": 2302, "fclass": "fast_food", "name": "The Pasty Shop" }, "geometry": { "type": "Point", "coordinates": [ -0.1331546, 51.5284235 ] } },
{ "type": "Feature", "properties": { "osm_id": "3646414492", "code": 2302, "fclass": "fast_food", "name": "Big Fish" }, "geometry": { "type": "Point", "coordinates": [ -1.4665992, 53.4620859 ] } },
{ "type": "Feature", "properties": { "osm_id": "4176360598", "code": 2302, "fclass": "fast_food", "name": "East Ayton Fisheries" }, "geometry": { "type": "Point", "coordinates": [ -0.4820918, 54.2501582 ] } },
{ "type": "Feature", "properties": { "osm_id": "3646415793", "code": 2302, "fclass": "fast_food", "name": "Mo Joe Deli" }, "geometry": { "type": "Point", "coordinates": [ -1.4666674, 53.4621015 ] } },
{ "type": "Feature", "properties": { "osm_id": "1042476702", "code": 2302, "fclass": "fast_food", "name": "The Cod Father" }, "geometry": { "type": "Point", "coordinates": [ -0.3020867, 51.0730784 ] } },
{ "type": "Feature", "properties": { "osm_id": "3646415794", "code": 2302, "fclass": "fast_food", "name": "Kiran Tandoori Hut" }, "geometry": { "type": "Point", "coordinates": [ -1.4667398, 53.4621412 ] } },
{ "type": "Feature", "properties": { "osm_id": "3844848027", "code": 2302, "fclass": "fast_food", "name": "Cockerton Sandwich Bar" }, "geometry": { "type": "Point", "coordinates": [ -1.5785851, 54.5342032 ] } },
{ "type": "Feature", "properties": { "osm_id": "2934625116", "code": 2302, "fclass": "fast_food", "name": "Pizza Corner" }, "geometry": { "type": "Point", "coordinates": [ -2.390659, 53.5447611 ] } },
{ "type": "Feature", "properties": { "osm_id": "3646415796", "code": 2302, "fclass": "fast_food", "name": "KFC" }, "geometry": { "type": "Point", "coordinates": [ -1.4675022, 53.4620682 ] } },
{ "type": "Feature", "properties": { "osm_id": "2251157392", "code": 2302, "fclass": "fast_food", "name": "McDonald's Camberley 2" }, "geometry": { "type": "Point", "coordinates": [ -0.766907, 51.3342419 ] } },
{ "type": "Feature", "properties": { "osm_id": "2934678050", "code": 2302, "fclass": "fast_food", "name": "Gourmet Grub" }, "geometry": { "type": "Point", "coordinates": [ -1.6191881, 54.9767513 ] } },
{ "type": "Feature", "properties": { "osm_id": "3844848034", "code": 2302, "fclass": "fast_food", "name": "Spice 4 U" }, "geometry": { "type": "Point", "coordinates": [ -1.5789062, 54.5340475 ] } },
{ "type": "Feature", "properties": { "osm_id": "393876963", "code": 2302, "fclass": "fast_food", "name": "Olivetta" }, "geometry": { "type": "Point", "coordinates": [ -0.0943423, 51.6638851 ] } },
{ "type": "Feature", "properties": { "osm_id": "3646415804", "code": 2302, "fclass": "fast_food", "name": "Pizza Hut" }, "geometry": { "type": "Point", "coordinates": [ -1.4676294, 53.4623893 ] } },
{ "type": "Feature", "properties": { "osm_id": "4176424410", "code": 2302, "fclass": "fast_food", "name": "Morrido" }, "geometry": { "type": "Point", "coordinates": [ -0.4314361, 54.2892895 ] } },
{ "type": "Feature", "properties": { "osm_id": "651540557", "code": 2302, "fclass": "fast_food", "name": "McDonald's" }, "geometry": { "type": "Point", "coordinates": [ -1.2199343, 54.5227037 ] } },
{ "type": "Feature", "properties": { "osm_id": "1883603723", "code": 2302, "fclass": "fast_food", "name": "Domino's Pizza" }, "geometry": { "type": "Point", "coordinates": [ -0.018239, 52.9715676 ] } },
{ "type": "Feature", "properties": { "osm_id": "2934694895", "code": 2302, "fclass": "fast_food", "name": "Pizza King" }, "geometry": { "type": "Point", "coordinates": [ -0.5564663, 51.3191105 ] } },
{ "type": "Feature", "properties": { "osm_id": "1883603757", "code": 2302, "fclass": "fast_food", "name": "Love Fish" }, "geometry": { "type": "Point", "coordinates": [ -0.018405, 52.9716419 ] } },
{ "type": "Feature", "properties": { "osm_id": "2934711181", "code": 2302, "fclass": "fast_food", "name": "Pizza Parlour Takeaway" }, "geometry": { "type": "Point", "coordinates": [ -0.4096774, 53.7528996 ] } },
{ "type": "Feature", "properties": { "osm_id": "4176440689", "code": 2302, "fclass": "fast_food", "name": null }, "geometry": { "type": "Point", "coordinates": [ -0.4179081, 54.2895263 ] } },
{ "type": "Feature", "properties": { "osm_id": "1042993050", "code": 2302, "fclass": "fast_food", "name": "Family Kebab" }, "geometry": { "type": "Point", "coordinates": [ -2.5365397, 51.4775736 ] } },
{ "type": "Feature", "properties": { "osm_id": "3646572062", "code": 2302, "fclass": "fast_food", "name": "Huang Lou Xing" }, "geometry": { "type": "Point", "coordinates": [ -1.4871733, 53.4737598 ] } },
{ "type": "Feature", "properties": { "osm_id": "2251382214", "code": 2302, "fclass": "fast_food", "name": "Magnificent Wok" }, "geometry": { "type": "Point", "coordinates": [ 1.0496195, 52.0037936 ] } },
{ "type": "Feature", "properties": { "osm_id": "1883791381", "code": 2302, "fclass": "fast_food", "name": null }, "geometry": { "type": "Point", "coordinates": [ -2.7603163, 53.9617035 ] } },
{ "type": "Feature", "properties": { "osm_id": "2934793301", "code": 2302, "fclass": "fast_food", "name": "Pizza GoGo" }, "geometry": { "type": "Point", "coordinates": [ -0.5559727, 51.3193134 ] } },
{ "type": "Feature", "properties": { "osm_id": "3646608155", "code": 2302, "fclass": "fast_food", "name": "Woodsley Fisheries" }, "geometry": { "type": "Point", "coordinates": [ -1.5682046, 53.8058147 ] } },
{ "type": "Feature", "properties": { "osm_id": "2529525811", "code": 2302, "fclass": "fast_food", "name": "Subway" }, "geometry": { "type": "Point", "coordinates": [ -0.1033522, 51.5453534 ] } },
{ "type": "Feature", "properties": { "osm_id": "3646608176", "code": 2302, "fclass": "fast_food", "name": "Haroon's" }, "geometry": { "type": "Point", "coordinates": [ -1.567864, 53.8060191 ] } },
{ "type": "Feature", "properties": { "osm_id": "393948701", "code": 2302, "fclass": "fast_food", "name": "Bombay Delights" }, "geometry": { "type": "Point", "coordinates": [ -3.4664967, 50.5810073 ] } },
{ "type": "Feature", "properties": { "osm_id": "2529563334", "code": 2302, "fclass": "fast_food", "name": "Sorrento" }, "geometry": { "type": "Point", "coordinates": [ -0.1010572, 51.5462748 ] } },
{ "type": "Feature", "properties": { "osm_id": "3646608221", "code": 2302, "fclass": "fast_food", "name": "Zak's" }, "geometry": { "type": "Point", "coordinates": [ -1.5679149, 53.8059827 ] } },
{ "type": "Feature", "properties": { "osm_id": "3646608226", "code": 2302, "fclass": "fast_food", "name": "Angelos Pizza" }, "geometry": { "type": "Point", "coordinates": [ -1.5684539, 53.8056659 ] } },
{ "type": "Feature", "properties": { "osm_id": "393948711", "code": 2302, "fclass": "fast_food", "name": "Baileys" }, "geometry": { "type": "Point", "coordinates": [ -3.4653166, 50.5805474 ] } },
{ "type": "Feature", "properties": { "osm_id": "3357922882", "code": 2302, "fclass": "fast_food", "name": "Starbucks" }, "geometry": { "type": "Point", "coordinates": [ -0.1426466, 51.5074031 ] } },
{ "type": "Feature", "properties": { "osm_id": "3646608289", "code": 2302, "fclass": "fast_food", "name": "Double Dragon" }, "geometry": { "type": "Point", "coordinates": [ -1.5681349, 53.8058496 ] } },
{ "type": "Feature", "properties": { "osm_id": "393954118", "code": 2302, "fclass": "fast_food", "name": "McDonald's" }, "geometry": { "type": "Point", "coordinates": [ -3.5359429, 50.7090321 ] } },
{ "type": "Feature", "properties": { "osm_id": "3357922886", "code": 2302, "fclass": "fast_food", "name": "Subway" }, "geometry": { "type": "Point", "coordinates": [ -0.1368336, 51.5162615 ] } },
{ "type": "Feature", "properties": { "osm_id": "486641370", "code": 2302, "fclass": "fast_food", "name": "Kingsdown Fish and Burger Bar" }, "geometry": { "type": "Point", "coordinates": [ -1.7557593, 51.5885723 ] } },
{ "type": "Feature", "properties": { "osm_id": "486649396", "code": 2302, "fclass": "fast_food", "name": "Stratton Tandoori" }, "geometry": { "type": "Point", "coordinates": [ -1.7414168, 51.5721464 ] } },
{ "type": "Feature", "properties": { "osm_id": "3646687345", "code": 2302, "fclass": "fast_food", "name": "1Pizza1" }, "geometry": { "type": "Point", "coordinates": [ -1.4712389, 53.7565689 ] } },
{ "type": "Feature", "properties": { "osm_id": "2530393847", "code": 2302, "fclass": "fast_food", "name": "Kempston Tandoori" }, "geometry": { "type": "Point", "coordinates": [ -0.4937831, 52.1192411 ] } },
{ "type": "Feature", "properties": { "osm_id": "1331125978", "code": 2302, "fclass": "fast_food", "name": "Coach House" }, "geometry": { "type": "Point", "coordinates": [ -1.914291, 53.2558614 ] } },
{ "type": "Feature", "properties": { "osm_id": "1331126025", "code": 2302, "fclass": "fast_food", "name": "Thompson's" }, "geometry": { "type": "Point", "coordinates": [ -1.9151154, 53.255133 ] } },
{ "type": "Feature", "properties": { "osm_id": "2255542617", "code": 2302, "fclass": "fast_food", "name": "Munch:munch" }, "geometry": { "type": "Point", "coordinates": [ -1.1697276, 52.9646332 ] } },
{ "type": "Feature", "properties": { "osm_id": "3357923668", "code": 2302, "fclass": "fast_food", "name": "Baked Potatoes" }, "geometry": { "type": "Point", "coordinates": [ -0.1368517, 51.5163391 ] } },
{ "type": "Feature", "properties": { "osm_id": "2255542626", "code": 2302, "fclass": "fast_food", "name": "Chasing Dragon" }, "geometry": { "type": "Point", "coordinates": [ -1.169641, 52.9644537 ] } },
{ "type": "Feature", "properties": { "osm_id": "3647245230", "code": 2302, "fclass": "fast_food", "name": "Oriental Wok Fish Bar" }, "geometry": { "type": "Point", "coordinates": [ -0.7094621, 51.6573692 ] } },
{ "type": "Feature", "properties": { "osm_id": "2255542632", "code": 2302, "fclass": "fast_food", "name": "Greg's Grill" }, "geometry": { "type": "Point", "coordinates": [ -1.1706162, 52.9651681 ] } },
{ "type": "Feature", "properties": { "osm_id": "2935660284", "code": 2302, "fclass": "fast_food", "name": "Farm Pizza & Kebab Kingdom" }, "geometry": { "type": "Point", "coordinates": [ -0.55837, 51.3183285 ] } },
{ "type": "Feature", "properties": { "osm_id": "1331285478", "code": 2302, "fclass": "fast_food", "name": "Greenfields Spice" }, "geometry": { "type": "Point", "coordinates": [ -2.7520528, 52.7190324 ] } },
{ "type": "Feature", "properties": { "osm_id": "4409487730", "code": 2302, "fclass": "fast_food", "name": "Blue Rickshaw" }, "geometry": { "type": "Point", "coordinates": [ -1.3377278, 51.2305611 ] } },
{ "type": "Feature", "properties": { "osm_id": "486718185", "code": 2302, "fclass": "fast_food", "name": "Saeed Balti House" }, "geometry": { "type": "Point", "coordinates": [ -2.2506163, 51.8527209 ] } },
{ "type": "Feature", "properties": { "osm_id": "807160607", "code": 2302, "fclass": "fast_food", "name": "The Lunch Box" }, "geometry": { "type": "Point", "coordinates": [ -1.4833425, 52.4635601 ] } },
{ "type": "Feature", "properties": { "osm_id": "2531024404", "code": 2302, "fclass": "fast_food", "name": "McDonald's" }, "geometry": { "type": "Point", "coordinates": [ -0.1034306, 51.5455816 ] } },
{ "type": "Feature", "properties": { "osm_id": "486818042", "code": 2302, "fclass": "fast_food", "name": "Subway" }, "geometry": { "type": "Point", "coordinates": [ -1.2570888, 51.4026601 ] } },
{ "type": "Feature", "properties": { "osm_id": "807174833", "code": 2302, "fclass": "fast_food", "name": "Exhall Chippy" }, "geometry": { "type": "Point", "coordinates": [ -1.4802933, 52.4651611 ] } },
{ "type": "Feature", "properties": { "osm_id": "4409656868", "code": 2302, "fclass": "fast_food", "name": "Castle Fish Bar" }, "geometry": { "type": "Point", "coordinates": [ -0.1040859, 51.4978973 ] } },
{ "type": "Feature", "properties": { "osm_id": "1884950935", "code": 2302, "fclass": "fast_food", "name": "Rain Fish Bar" }, "geometry": { "type": "Point", "coordinates": [ 0.9022296, 51.1408524 ] } },
{ "type": "Feature", "properties": { "osm_id": "4409665813", "code": 2302, "fclass": "fast_food", "name": "Subway" }, "geometry": { "type": "Point", "coordinates": [ -0.1038771, 51.4977406 ] } },
{ "type": "Feature", "properties": { "osm_id": "1884950936", "code": 2302, "fclass": "fast_food", "name": "Willesborough Tandoori" }, "geometry": { "type": "Point", "coordinates": [ 0.9022598, 51.1408963 ] } },
{ "type": "Feature", "properties": { "osm_id": "1884950937", "code": 2302, "fclass": "fast_food", "name": "Kong Wah" }, "geometry": { "type": "Point", "coordinates": [ 0.9022936, 51.1409475 ] } },
{ "type": "Feature", "properties": { "osm_id": "3357923692", "code": 2302, "fclass": "fast_food", "name": "Burger King" }, "geometry": { "type": "Point", "coordinates": [ -0.1307053, 51.5166494 ] } },
{ "type": "Feature", "properties": { "osm_id": "3357928294", "code": 2302, "fclass": "fast_food", "name": "Cafe Zeynah" }, "geometry": { "type": "Point", "coordinates": [ -0.1473047, 51.51447 ] } },
{ "type": "Feature", "properties": { "osm_id": "807303194", "code": 2302, "fclass": "fast_food", "name": "Oaks Tandoori" }, "geometry": { "type": "Point", "coordinates": [ -0.3391193, 51.7699977 ] } },
{ "type": "Feature", "properties": { "osm_id": "487070422", "code": 2302, "fclass": "fast_food", "name": "KFC" }, "geometry": { "type": "Point", "coordinates": [ 0.469171, 51.7520532 ] } },
{ "type": "Feature", "properties": { "osm_id": "487070423", "code": 2302, "fclass": "fast_food", "name": "China City" }, "geometry": { "type": "Point", "coordinates": [ 0.4682936, 51.7509555 ] } },
{ "type": "Feature", "properties": { "osm_id": "1331394026", "code": 2302, "fclass": "fast_food", "name": "Babka" }, "geometry": { "type": "Point", "coordinates": [ -1.9830281, 53.3286008 ] } },
{ "type": "Feature", "properties": { "osm_id": "3848004936", "code": 2302, "fclass": "fast_food", "name": "Domino's" }, "geometry": { "type": "Point", "coordinates": [ -1.07106, 52.5947243 ] } },
{ "type": "Feature", "properties": { "osm_id": "1331394271", "code": 2302, "fclass": "fast_food", "name": "The Fryery" }, "geometry": { "type": "Point", "coordinates": [ -1.983745, 53.3305088 ] } },
{ "type": "Feature", "properties": { "osm_id": "3848004941", "code": 2302, "fclass": "fast_food", "name": "Oadby Fish Bar" }, "geometry": { "type": "Point", "coordinates": [ -1.0710117, 52.594664 ] } },
{ "type": "Feature", "properties": { "osm_id": "1885025227", "code": 2302, "fclass": "fast_food", "name": null }, "geometry": { "type": "Point", "coordinates": [ 0.8785072, 51.1388338 ] } },
{ "type": "Feature", "properties": { "osm_id": "652947560", "code": 2302, "fclass": "fast_food", "name": "Intake Fisheries" }, "geometry": { "type": "Point", "coordinates": [ -1.422067, 53.3588664 ] } },
{ "type": "Feature", "properties": { "osm_id": "4409703566", "code": 2302, "fclass": "fast_food", "name": "Di Biasio" }, "geometry": { "type": "Point", "coordinates": [ -1.6376871, 54.9393778 ] } },
{ "type": "Feature", "properties": { "osm_id": "653117508", "code": 2302, "fclass": "fast_food", "name": "Chicken Cottage" }, "geometry": { "type": "Point", "coordinates": [ -0.1152919, 51.5034217 ] } },
{ "type": "Feature", "properties": { "osm_id": "4177016608", "code": 2302, "fclass": "fast_food", "name": "West Kirby Grill" }, "geometry": { "type": "Point", "coordinates": [ -3.1844176, 53.3734397 ] } },
{ "type": "Feature", "properties": { "osm_id": "2255932807", "code": 2302, "fclass": "fast_food", "name": "Ham" }, "geometry": { "type": "Point", "coordinates": [ -1.169297, 52.9632723 ] } },
{ "type": "Feature", "properties": { "osm_id": "653150245", "code": 2302, "fclass": "fast_food", "name": "Griller Pizza & Fish Bar" }, "geometry": { "type": "Point", "coordinates": [ -1.8770251, 52.4531176 ] } },
{ "type": "Feature", "properties": { "osm_id": "3647248134", "code": 2302, "fclass": "fast_food", "name": "Subway" }, "geometry": { "type": "Point", "coordinates": [ -1.5871828, 53.1609103 ] } },
{ "type": "Feature", "properties": { "osm_id": "4177016611", "code": 2302, "fclass": "fast_food", "name": "Fu Lam" }, "geometry": { "type": "Point", "coordinates": [ -3.1846295, 53.3736445 ] } },
{ "type": "Feature", "properties": { "osm_id": "3357928315", "code": 2302, "fclass": "fast_food", "name": "China Express" }, "geometry": { "type": "Point", "coordinates": [ -0.1315347, 51.5162395 ] } },
{ "type": "Feature", "properties": { "osm_id": "4409730814", "code": 2302, "fclass": "fast_food", "name": "Lobley Hill Fish Bar" }, "geometry": { "type": "Point", "coordinates": [ -1.6389363, 54.9416639 ] } },
{ "type": "Feature", "properties": { "osm_id": "2255932985", "code": 2302, "fclass": "fast_food", "name": "Shawarma Victoria" }, "geometry": { "type": "Point", "coordinates": [ -1.1691261, 52.9635167 ] } },
{ "type": "Feature", "properties": { "osm_id": "3357928317", "code": 2302, "fclass": "fast_food", "name": "Cinnabon" }, "geometry": { "type": "Point", "coordinates": [ -0.1497374, 51.5139436 ] } },
{ "type": "Feature", "properties": { "osm_id": "1625796863", "code": 2302, "fclass": "fast_food", "name": "AJs" }, "geometry": { "type": "Point", "coordinates": [ -1.1753735, 50.6330628 ] } },
{ "type": "Feature", "properties": { "osm_id": "2255954838", "code": 2302, "fclass": "fast_food", "name": "Bombay Sweet Centre & Curry House" }, "geometry": { "type": "Point", "coordinates": [ -1.1715484, 52.9667208 ] } },
{ "type": "Feature", "properties": { "osm_id": "1625796864", "code": 2302, "fclass": "fast_food", "name": "Chubby's" }, "geometry": { "type": "Point", "coordinates": [ -1.1780374, 50.629781 ] } },
{ "type": "Feature", "properties": { "osm_id": "2255954840", "code": 2302, "fclass": "fast_food", "name": "Desi Express" }, "geometry": { "type": "Point", "coordinates": [ -1.1707307, 52.9657026 ] } },
{ "type": "Feature", "properties": { "osm_id": "4177039828", "code": 2302, "fclass": "fast_food", "name": "Rubens" }, "geometry": { "type": "Point", "coordinates": [ -3.1847609, 53.3719579 ] } },
{ "type": "Feature", "properties": { "osm_id": "487550428", "code": 2302, "fclass": "fast_food", "name": "Chicago's" }, "geometry": { "type": "Point", "coordinates": [ -1.3142857, 54.5617121 ] } },
{ "type": "Feature", "properties": { "osm_id": "2255954849", "code": 2302, "fclass": "fast_food", "name": "Yumi" }, "geometry": { "type": "Point", "coordinates": [ -1.1701554, 52.9656912 ] } },
{ "type": "Feature", "properties": { "osm_id": "3357928338", "code": 2302, "fclass": "fast_food", "name": "Donuts & Baguettes" }, "geometry": { "type": "Point", "coordinates": [ -0.1351317, 51.5103808 ] } },
{ "type": "Feature", "properties": { "osm_id": "2937509620", "code": 2302, "fclass": "fast_food", "name": "Papa John's" }, "geometry": { "type": "Point", "coordinates": [ -1.5320925, 52.2843522 ] } },
{ "type": "Feature", "properties": { "osm_id": "3357928344", "code": 2302, "fclass": "fast_food", "name": "Eat." }, "geometry": { "type": "Point", "coordinates": [ -0.1429935, 51.5069796 ] } },
{ "type": "Feature", "properties": { "osm_id": "2255974433", "code": 2302, "fclass": "fast_food", "name": "RBCO" }, "geometry": { "type": "Point", "coordinates": [ -1.1713021, 52.9650503 ] } },
{ "type": "Feature", "properties": { "osm_id": "4409759864", "code": 2302, "fclass": "fast_food", "name": "Lucky Garden Takeaway" }, "geometry": { "type": "Point", "coordinates": [ -1.6407507, 54.9467836 ] } },
{ "type": "Feature", "properties": { "osm_id": "3647564145", "code": 2302, "fclass": "fast_food", "name": "Big Apple Hot Dogs" }, "geometry": { "type": "Point", "coordinates": [ -0.133062, 51.5278786 ] } },
{ "type": "Feature", "properties": { "osm_id": "3647564146", "code": 2302, "fclass": "fast_food", "name": "The Rib Man" }, "geometry": { "type": "Point", "coordinates": [ -0.1328791, 51.5279562 ] } },
{ "type": "Feature", "properties": { "osm_id": "4177159004", "code": 2302, "fclass": "fast_food", "name": "St Michaels Fish & Chips" }, "geometry": { "type": "Point", "coordinates": [ -1.5132845, 53.678841 ] } },
{ "type": "Feature", "properties": { "osm_id": "807676206", "code": 2302, "fclass": "fast_food", "name": null }, "geometry": { "type": "Point", "coordinates": [ 0.3981124, 52.598362 ] } },
{ "type": "Feature", "properties": { "osm_id": "4177199593", "code": 2302, "fclass": "fast_food", "name": "Captain Tony's Pizza" }, "geometry": { "type": "Point", "coordinates": [ -3.0325369, 53.3750774 ] } },
{ "type": "Feature", "properties": { "osm_id": "3357928358", "code": 2302, "fclass": "fast_food", "name": "Foodle Bar" }, "geometry": { "type": "Point", "coordinates": [ -0.1365196, 51.5162953 ] } },
{ "type": "Feature", "properties": { "osm_id": "807824880", "code": 2302, "fclass": "fast_food", "name": "Rainbow take away" }, "geometry": { "type": "Point", "coordinates": [ -2.1042321, 52.9781756 ] } },
{ "type": "Feature", "properties": { "osm_id": "1044897570", "code": 2302, "fclass": "fast_food", "name": "Mr Chips" }, "geometry": { "type": "Point", "coordinates": [ -0.3071643, 51.3669458 ] } },
{ "type": "Feature", "properties": { "osm_id": "653833459", "code": 2302, "fclass": "fast_food", "name": "Radbrook Green Fish Bar" }, "geometry": { "type": "Point", "coordinates": [ -2.7758603, 52.6970218 ] } },
{ "type": "Feature", "properties": { "osm_id": "653837334", "code": 2302, "fclass": "fast_food", "name": "Andros Fish Bar" }, "geometry": { "type": "Point", "coordinates": [ -2.7318383, 52.7306937 ] } },
{ "type": "Feature", "properties": { "osm_id": "807891067", "code": 2302, "fclass": "fast_food", "name": "Nicky's Fish Bar" }, "geometry": { "type": "Point", "coordinates": [ -1.4751116, 52.9187601 ] } },
{ "type": "Feature", "properties": { "osm_id": "2938197723", "code": 2302, "fclass": "fast_food", "name": "Darbar Indian Takeaway" }, "geometry": { "type": "Point", "coordinates": [ -2.3516251, 53.3836343 ] } },
{ "type": "Feature", "properties": { "osm_id": "319282475", "code": 2302, "fclass": "fast_food", "name": "Subway" }, "geometry": { "type": "Point", "coordinates": [ -1.8872765, 52.4754777 ] } },
{ "type": "Feature", "properties": { "osm_id": "1044930417", "code": 2302, "fclass": "fast_food", "name": "Chessington Palace Fish & Kebab Bar" }, "geometry": { "type": "Point", "coordinates": [ -0.3008678, 51.3636276 ] } },
{ "type": "Feature", "properties": { "osm_id": "2256219327", "code": 2302, "fclass": "fast_food", "name": "Wimpy" }, "geometry": { "type": "Point", "coordinates": [ -0.282528, 51.5620466 ] } },
{ "type": "Feature", "properties": { "osm_id": "653929843", "code": 2302, "fclass": "fast_food", "name": "Antalya Chip Shop" }, "geometry": { "type": "Point", "coordinates": [ -1.1999286, 52.6240307 ] } },
{ "type": "Feature", "properties": { "osm_id": "2938257200", "code": 2302, "fclass": "fast_food", "name": "Jin Hui Chinese Takeaway" }, "geometry": { "type": "Point", "coordinates": [ 0.0198409, 51.5510732 ] } },
{ "type": "Feature", "properties": { "osm_id": "3648083065", "code": 2302, "fclass": "fast_food", "name": "Farmhouse Pizza" }, "geometry": { "type": "Point", "coordinates": [ -0.1160314, 51.570631 ] } },
{ "type": "Feature", "properties": { "osm_id": "2938257301", "code": 2302, "fclass": "fast_food", "name": "Pizza Pizza Takeaway" }, "geometry": { "type": "Point", "coordinates": [ -0.0573528, 51.5329406 ] } },
{ "type": "Feature", "properties": { "osm_id": "4409793550", "code": 2302, "fclass": "fast_food", "name": "Golden Gate" }, "geometry": { "type": "Point", "coordinates": [ -1.6468453, 54.9486728 ] } },
{ "type": "Feature", "properties": { "osm_id": "1331746926", "code": 2302, "fclass": "fast_food", "name": "Toast" }, "geometry": { "type": "Point", "coordinates": [ -0.1475535, 51.5134368 ] } },
{ "type": "Feature", "properties": { "osm_id": "4409793585", "code": 2302, "fclass": "fast_food", "name": "Dunston Chippy" }, "geometry": { "type": "Point", "coordinates": [ -1.6462464, 54.9486215 ] } },
{ "type": "Feature", "properties": { "osm_id": "4409793586", "code": 2302, "fclass": "fast_food", "name": "The Wheat Sheaf Express" }, "geometry": { "type": "Point", "coordinates": [ -1.6461659, 54.9486194 ] } },
{ "type": "Feature", "properties": { "osm_id": "3850524731", "code": 2302, "fclass": "fast_food", "name": "McDonald's" }, "geometry": { "type": "Point", "coordinates": [ -0.0331763, 51.431342 ] } },
{ "type": "Feature", "properties": { "osm_id": "3357928603", "code": 2302, "fclass": "fast_food", "name": "Itsu" }, "geometry": { "type": "Point", "coordinates": [ -0.139869, 51.5078867 ] } },
{ "type": "Feature", "properties": { "osm_id": "1331753907", "code": 2302, "fclass": "fast_food", "name": "Treats" }, "geometry": { "type": "Point", "coordinates": [ -0.336696, 51.5797976 ] } },
{ "type": "Feature", "properties": { "osm_id": "319428955", "code": 2302, "fclass": "fast_food", "name": "Peter Chan's Chinese" }, "geometry": { "type": "Point", "coordinates": [ -1.5677812, 53.8117165 ] } },
{ "type": "Feature", "properties": { "osm_id": "319428957", "code": 2302, "fclass": "fast_food", "name": "Raja's" }, "geometry": { "type": "Point", "coordinates": [ -1.5677381, 53.8118168 ] } },
{ "type": "Feature", "properties": { "osm_id": "2258183623", "code": 2302, "fclass": "fast_food", "name": "Munchable" }, "geometry": { "type": "Point", "coordinates": [ -1.1722088, 52.9556602 ] } },
{ "type": "Feature", "properties": { "osm_id": "3357928606", "code": 2302, "fclass": "fast_food", "name": "Jamie Oliver's Diner" }, "geometry": { "type": "Point", "coordinates": [ -0.1342064, 51.5106143 ] } },
{ "type": "Feature", "properties": { "osm_id": "653961292", "code": 2302, "fclass": "fast_food", "name": "Rainbow" }, "geometry": { "type": "Point", "coordinates": [ -0.2261945, 51.7626526 ] } },
{ "type": "Feature", "properties": { "osm_id": "1885783001", "code": 2302, "fclass": "fast_food", "name": "Thompson's Traditional Fish & Chips" }, "geometry": { "type": "Point", "coordinates": [ -1.1085516, 53.9382809 ] } },
{ "type": "Feature", "properties": { "osm_id": "2258183624", "code": 2302, "fclass": "fast_food", "name": "Milano Pizza" }, "geometry": { "type": "Point", "coordinates": [ -1.1721122, 52.9556625 ] } },
{ "type": "Feature", "properties": { "osm_id": "3357928607", "code": 2302, "fclass": "fast_food", "name": "Jamie Oliver's Takeout" }, "geometry": { "type": "Point", "coordinates": [ -0.1342748, 51.5105373 ] } },
{ "type": "Feature", "properties": { "osm_id": "653961293", "code": 2302, "fclass": "fast_food", "name": "China Sky" }, "geometry": { "type": "Point", "coordinates": [ -0.2261892, 51.762714 ] } },
{ "type": "Feature", "properties": { "osm_id": "4178626736", "code": 2302, "fclass": "fast_food", "name": "Golden Palace" }, "geometry": { "type": "Point", "coordinates": [ -3.172034, 53.397075 ] } },
{ "type": "Feature", "properties": { "osm_id": "3648100311", "code": 2302, "fclass": "fast_food", "name": "Mr Chippy" }, "geometry": { "type": "Point", "coordinates": [ -0.1209988, 51.5581793 ] } },
{ "type": "Feature", "properties": { "osm_id": "319428961", "code": 2302, "fclass": "fast_food", "name": "Shahjahan" }, "geometry": { "type": "Point", "coordinates": [ -1.5676139, 53.8121264 ] } },
{ "type": "Feature", "properties": { "osm_id": "488403926", "code": 2302, "fclass": "fast_food", "name": null }, "geometry": { "type": "Point", "coordinates": [ -0.5253085, 53.1082708 ] } },
{ "type": "Feature", "properties": { "osm_id": "1627301824", "code": 2302, "fclass": "fast_food", "name": "Subway" }, "geometry": { "type": "Point", "coordinates": [ 0.0068127, 50.7903208 ] } },
{ "type": "Feature", "properties": { "osm_id": "653977961", "code": 2302, "fclass": "fast_food", "name": "Curry Express" }, "geometry": { "type": "Point", "coordinates": [ -0.2258432, 51.7628146 ] } },
{ "type": "Feature", "properties": { "osm_id": "1045475680", "code": 2302, "fclass": "fast_food", "name": "Cater Bites Caf" }, "geometry": { "type": "Point", "coordinates": [ -1.9209496, 52.4836556 ] } },
{ "type": "Feature", "properties": { "osm_id": "1627314875", "code": 2302, "fclass": "fast_food", "name": "McDonald's" }, "geometry": { "type": "Point", "coordinates": [ 0.0586813, 50.7964109 ] } },
{ "type": "Feature", "properties": { "osm_id": "3648101626", "code": 2302, "fclass": "fast_food", "name": "Waterfall Kebab Centre" }, "geometry": { "type": "Point", "coordinates": [ -0.1210433, 51.5591007 ] } },
{ "type": "Feature", "properties": { "osm_id": "653978330", "code": 2302, "fclass": "fast_food", "name": null }, "geometry": { "type": "Point", "coordinates": [ -1.1541766, 52.6233804 ] } },
{ "type": "Feature", "properties": { "osm_id": "2258357618", "code": 2302, "fclass": "fast_food", "name": "Thai Hua" }, "geometry": { "type": "Point", "coordinates": [ -1.1794407, 52.9553813 ] } },
{ "type": "Feature", "properties": { "osm_id": "2258357623", "code": 2302, "fclass": "fast_food", "name": "Padrino's Fast Food" }, "geometry": { "type": "Point", "coordinates": [ -1.1787387, 52.9554513 ] } },
{ "type": "Feature", "properties": { "osm_id": "1627541751", "code": 2302, "fclass": "fast_food", "name": "McDonald's" }, "geometry": { "type": "Point", "coordinates": [ -0.8108156, 51.8169978 ] } },
{ "type": "Feature", "properties": { "osm_id": "3357928616", "code": 2302, "fclass": "fast_food", "name": "KFC" }, "geometry": { "type": "Point", "coordinates": [ -0.1365772, 51.5164262 ] } },
{ "type": "Feature", "properties": { "osm_id": "4178685870", "code": 2302, "fclass": "fast_food", "name": "Sunflower" }, "geometry": { "type": "Point", "coordinates": [ -3.172991, 53.3961487 ] } },
{ "type": "Feature", "properties": { "osm_id": "653980539", "code": 2302, "fclass": "fast_food", "name": "Favourite Chicken & Ribs" }, "geometry": { "type": "Point", "coordinates": [ -0.2305111, 51.7626743 ] } },
{ "type": "Feature", "properties": { "osm_id": "2258357645", "code": 2302, "fclass": "fast_food", "name": "Papa's Grill" }, "geometry": { "type": "Point", "coordinates": [ -1.1799483, 52.9553326 ] } },
{ "type": "Feature", "properties": { "osm_id": "319429917", "code": 2302, "fclass": "fast_food", "name": "Zulfi's" }, "geometry": { "type": "Point", "coordinates": [ -1.5687717, 53.8125268 ] } },
{ "type": "Feature", "properties": { "osm_id": "319429918", "code": 2302, "fclass": "fast_food", "name": "Mr T's Traditional Fish & Chips" }, "geometry": { "type": "Point", "coordinates": [ -1.5688381, 53.812509 ] } },
{ "type": "Feature", "properties": { "osm_id": "653984955", "code": 2302, "fclass": "fast_food", "name": "PFC" }, "geometry": { "type": "Point", "coordinates": [ -0.0724253, 51.5632595 ] } },
{ "type": "Feature", "properties": { "osm_id": "1627632428", "code": 2302, "fclass": "fast_food", "name": "Britannia Fish & Chips" }, "geometry": { "type": "Point", "coordinates": [ -1.1067403, 50.7986135 ] } },
{ "type": "Feature", "properties": { "osm_id": "2533759109", "code": 2302, "fclass": "fast_food", "name": "Greggs" }, "geometry": { "type": "Point", "coordinates": [ -2.2334836, 53.4800916 ] } },
{ "type": "Feature", "properties": { "osm_id": "319429920", "code": 2302, "fclass": "fast_food", "name": "Pitza Cano" }, "geometry": { "type": "Point", "coordinates": [ -1.5695816, 53.8111961 ] } },
{ "type": "Feature", "properties": { "osm_id": "1045950585", "code": 2302, "fclass": "fast_food", "name": "Great British Eatery(closed)" }, "geometry": { "type": "Point", "coordinates": [ -1.9223855, 52.4733063 ] } },
{ "type": "Feature", "properties": { "osm_id": "319429925", "code": 2302, "fclass": "fast_food", "name": "Charlies Chans" }, "geometry": { "type": "Point", "coordinates": [ -1.5697082, 53.8109082 ] } },
{ "type": "Feature", "properties": { "osm_id": "3851926258", "code": 2302, "fclass": "fast_food", "name": "Subway" }, "geometry": { "type": "Point", "coordinates": [ -1.9457199, 52.3637731 ] } },
{ "type": "Feature", "properties": { "osm_id": "319429926", "code": 2302, "fclass": "fast_food", "name": "Georges Spice" }, "geometry": { "type": "Point", "coordinates": [ -1.5697703, 53.8107725 ] } },
{ "type": "Feature", "properties": { "osm_id": "808452854", "code": 2302, "fclass": "fast_food", "name": "Marlow Bottom Fish Bar" }, "geometry": { "type": "Point", "coordinates": [ -0.7741733, 51.586985 ] } },
{ "type": "Feature", "properties": { "osm_id": "3851926259", "code": 2302, "fclass": "fast_food", "name": "Harry Ramsden's" }, "geometry": { "type": "Point", "coordinates": [ -1.945689, 52.3636842 ] } },
{ "type": "Feature", "properties": { "osm_id": "319429928", "code": 2302, "fclass": "fast_food", "name": "Maxi's" }, "geometry": { "type": "Point", "coordinates": [ -1.5697993, 53.8107071 ] } },
{ "type": "Feature", "properties": { "osm_id": "3851926357", "code": 2302, "fclass": "fast_food", "name": "KFC" }, "geometry": { "type": "Point", "coordinates": [ -1.945418, 52.3636259 ] } },
{ "type": "Feature", "properties": { "osm_id": "3357928627", "code": 2302, "fclass": "fast_food", "name": "Knightsbridge Express" }, "geometry": { "type": "Point", "coordinates": [ -0.1622803, 51.501131 ] } },
{ "type": "Feature", "properties": { "osm_id": "3851926457", "code": 2302, "fclass": "fast_food", "name": "Burger King" }, "geometry": { "type": "Point", "coordinates": [ -1.9455316, 52.363687 ] } },
{ "type": "Feature", "properties": { "osm_id": "4179200430", "code": 2302, "fclass": "fast_food", "name": "Pizza Magic" }, "geometry": { "type": "Point", "coordinates": [ -3.1757845, 53.3938909 ] } },
{ "type": "Feature", "properties": { "osm_id": "2259786801", "code": 2302, "fclass": "fast_food", "name": "Kim's Kitchen" }, "geometry": { "type": "Point", "coordinates": [ -1.2406289, 52.9582089 ] } },
{ "type": "Feature", "properties": { "osm_id": "4179200442", "code": 2302, "fclass": "fast_food", "name": "Curry Garden" }, "geometry": { "type": "Point", "coordinates": [ -3.1751998, 53.394134 ] } },
{ "type": "Feature", "properties": { "osm_id": "4179200451", "code": 2302, "fclass": "fast_food", "name": "Ali's Kebab & Pizza House" }, "geometry": { "type": "Point", "coordinates": [ -3.1755753, 53.3941309 ] } },
{ "type": "Feature", "properties": { "osm_id": "2260203369", "code": 2302, "fclass": "fast_food", "name": "Starbucks" }, "geometry": { "type": "Point", "coordinates": [ -2.5680331, 51.9279052 ] } },
{ "type": "Feature", "properties": { "osm_id": "2260252154", "code": 2302, "fclass": "fast_food", "name": "TJ's Burgers & Kebabs" }, "geometry": { "type": "Point", "coordinates": [ -1.117324, 52.6168634 ] } },
{ "type": "Feature", "properties": { "osm_id": "2534576807", "code": 2302, "fclass": "fast_food", "name": "Stubbins Tandoori" }, "geometry": { "type": "Point", "coordinates": [ -2.3157119, 53.6580574 ] } },
{ "type": "Feature", "properties": { "osm_id": "3852814057", "code": 2302, "fclass": "fast_food", "name": "Burger King" }, "geometry": { "type": "Point", "coordinates": [ -2.2004307, 51.217739 ] } },
{ "type": "Feature", "properties": { "osm_id": "319521745", "code": 2302, "fclass": "fast_food", "name": "B My Chip" }, "geometry": { "type": "Point", "coordinates": [ -1.8846808, 52.4711927 ] } },
{ "type": "Feature", "properties": { "osm_id": "3357928813", "code": 2302, "fclass": "fast_food", "name": "McDonald's" }, "geometry": { "type": "Point", "coordinates": [ -0.1656588, 51.4982945 ] } },
{ "type": "Feature", "properties": { "osm_id": "1046916839", "code": 2302, "fclass": "fast_food", "name": "Fish & Chips Take Away" }, "geometry": { "type": "Point", "coordinates": [ 0.6962498, 51.5357271 ] } },
{ "type": "Feature", "properties": { "osm_id": "3357928814", "code": 2302, "fclass": "fast_food", "name": "McDonald's" }, "geometry": { "type": "Point", "coordinates": [ -0.1497223, 51.5138622 ] } },
{ "type": "Feature", "properties": { "osm_id": "809808550", "code": 2302, "fclass": "fast_food", "name": "Full Chef" }, "geometry": { "type": "Point", "coordinates": [ -2.098614, 52.9897839 ] } },
{ "type": "Feature", "properties": { "osm_id": "489329290", "code": 2302, "fclass": "fast_food", "name": "Burger King" }, "geometry": { "type": "Point", "coordinates": [ -2.9826752, 53.4075946 ] } },
{ "type": "Feature", "properties": { "osm_id": "1332602080", "code": 2302, "fclass": "fast_food", "name": "BaeGo's" }, "geometry": { "type": "Point", "coordinates": [ -2.1291908, 52.5852126 ] } },
{ "type": "Feature", "properties": { "osm_id": "1628306328", "code": 2302, "fclass": "fast_food", "name": "New Swan" }, "geometry": { "type": "Point", "coordinates": [ 0.3275991, 51.6121575 ] } },
{ "type": "Feature", "properties": { "osm_id": "1887558971", "code": 2302, "fclass": "fast_food", "name": "Balti Kitchen" }, "geometry": { "type": "Point", "coordinates": [ -2.1235478, 53.256517 ] } },
{ "type": "Feature", "properties": { "osm_id": "2260661230", "code": 2302, "fclass": "fast_food", "name": "(Opening soon under new management)" }, "geometry": { "type": "Point", "coordinates": [ -1.1219768, 52.9838219 ] } },
{ "type": "Feature", "properties": { "osm_id": "2260661250", "code": 2302, "fclass": "fast_food", "name": "Hoo Tak" }, "geometry": { "type": "Point", "coordinates": [ -1.1220643, 52.9837713 ] } },
{ "type": "Feature", "properties": { "osm_id": "3357928833", "code": 2302, "fclass": "fast_food", "name": "O'Keefe's" }, "geometry": { "type": "Point", "coordinates": [ -0.165426, 51.4989604 ] } },
{ "type": "Feature", "properties": { "osm_id": "3649216031", "code": 2302, "fclass": "fast_food", "name": "Middleton Fisheries" }, "geometry": { "type": "Point", "coordinates": [ -1.5501688, 53.7415796 ] } },
{ "type": "Feature", "properties": { "osm_id": "809996841", "code": 2302, "fclass": "fast_food", "name": "Preject Pizza" }, "geometry": { "type": "Point", "coordinates": [ -2.1215201, 52.98276 ] } },
{ "type": "Feature", "properties": { "osm_id": "1048533191", "code": 2302, "fclass": "fast_food", "name": "Spice Hut" }, "geometry": { "type": "Point", "coordinates": [ 0.6969701, 51.5415109 ] } },
{ "type": "Feature", "properties": { "osm_id": "2939821084", "code": 2302, "fclass": "fast_food", "name": null }, "geometry": { "type": "Point", "coordinates": [ -2.8931353, 52.9072135 ] } },
{ "type": "Feature", "properties": { "osm_id": "3649452385", "code": 2302, "fclass": "fast_food", "name": "Chicken Base" }, "geometry": { "type": "Point", "coordinates": [ -0.9887669, 51.4555319 ] } },
{ "type": "Feature", "properties": { "osm_id": "810139766", "code": 2302, "fclass": "fast_food", "name": "Subway" }, "geometry": { "type": "Point", "coordinates": [ -5.4805024, 50.2113591 ] } },
{ "type": "Feature", "properties": { "osm_id": "3649466752", "code": 2302, "fclass": "fast_food", "name": "Star" }, "geometry": { "type": "Point", "coordinates": [ -0.9884631, 51.4557211 ] } },
{ "type": "Feature", "properties": { "osm_id": "655168556", "code": 2302, "fclass": "fast_food", "name": "Morley's" }, "geometry": { "type": "Point", "coordinates": [ -0.1002938, 51.4927286 ] } },
{ "type": "Feature", "properties": { "osm_id": "810139773", "code": 2302, "fclass": "fast_food", "name": "The Dolphin Fish and Chip Restaurant" }, "geometry": { "type": "Point", "coordinates": [ -5.4802172, 50.2142763 ] } },
{ "type": "Feature", "properties": { "osm_id": "3357928853", "code": 2302, "fclass": "fast_food", "name": "Pomme de Pain" }, "geometry": { "type": "Point", "coordinates": [ -0.1309123, 51.5174295 ] } },
{ "type": "Feature", "properties": { "osm_id": "3649466755", "code": 2302, "fclass": "fast_food", "name": "Perfect Fried Chicken" }, "geometry": { "type": "Point", "coordinates": [ -0.9881975, 51.4556963 ] } },
{ "type": "Feature", "properties": { "osm_id": "2260698147", "code": 2302, "fclass": "fast_food", "name": "Pizza Inn" }, "geometry": { "type": "Point", "coordinates": [ -1.1759115, 52.9557671 ] } },
{ "type": "Feature", "properties": { "osm_id": "2260752957", "code": 2302, "fclass": "fast_food", "name": "Fish and Chips" }, "geometry": { "type": "Point", "coordinates": [ -3.48699, 50.7250315 ] } },
{ "type": "Feature", "properties": { "osm_id": "3357928858", "code": 2302, "fclass": "fast_food", "name": "Pret A Manger" }, "geometry": { "type": "Point", "coordinates": [ -0.1435064, 51.5066105 ] } },
{ "type": "Feature", "properties": { "osm_id": "3357928859", "code": 2302, "fclass": "fast_food", "name": "Pret A Manger" }, "geometry": { "type": "Point", "coordinates": [ -0.1492226, 51.513983 ] } },
{ "type": "Feature", "properties": { "osm_id": "3357928860", "code": 2302, "fclass": "fast_food", "name": "Pret A Manger" }, "geometry": { "type": "Point", "coordinates": [ -0.1472293, 51.515158 ] } },
{ "type": "Feature", "properties": { "osm_id": "3649661198", "code": 2302, "fclass": "fast_food", "name": "White Rose Sandwich Co." }, "geometry": { "type": "Point", "coordinates": [ -1.541126, 53.721345 ] } },
{ "type": "Feature", "properties": { "osm_id": "3649661208", "code": 2302, "fclass": "fast_food", "name": "Fish & Chips" }, "geometry": { "type": "Point", "coordinates": [ -1.5389452, 53.7216704 ] } },
{ "type": "Feature", "properties": { "osm_id": "2535730348", "code": 2302, "fclass": "fast_food", "name": "Oriental Express" }, "geometry": { "type": "Point", "coordinates": [ -2.1855857, 51.0080584 ] } },
{ "type": "Feature", "properties": { "osm_id": "395339247", "code": 2302, "fclass": "fast_food", "name": "Billy's" }, "geometry": { "type": "Point", "coordinates": [ -0.4411799, 51.0379569 ] } },
{ "type": "Feature", "properties": { "osm_id": "395343072", "code": 2302, "fclass": "fast_food", "name": "Fryday's Cafe" }, "geometry": { "type": "Point", "coordinates": [ -1.4464418, 51.6038672 ] } },
{ "type": "Feature", "properties": { "osm_id": "655307384", "code": 2302, "fclass": "fast_food", "name": "Kin's Kitchen" }, "geometry": { "type": "Point", "coordinates": [ -1.4247197, 53.3513566 ] } },
{ "type": "Feature", "properties": { "osm_id": "395352545", "code": 2302, "fclass": "fast_food", "name": null }, "geometry": { "type": "Point", "coordinates": [ 0.9398944, 52.6811532 ] } },
{ "type": "Feature", "properties": { "osm_id": "395352926", "code": 2302, "fclass": "fast_food", "name": "Sukhothai Restaurant" }, "geometry": { "type": "Point", "coordinates": [ 0.9398944, 52.6813821 ] } },
{ "type": "Feature", "properties": { "osm_id": "395352935", "code": 2302, "fclass": "fast_food", "name": "Hong Kong City" }, "geometry": { "type": "Point", "coordinates": [ 0.9398908, 52.6814769 ] } },
{ "type": "Feature", "properties": { "osm_id": "3854384590", "code": 2302, "fclass": "fast_food", "name": "McDonald's" }, "geometry": { "type": "Point", "coordinates": [ -1.5538782, 54.5274295 ] } },
{ "type": "Feature", "properties": { "osm_id": "1049943535", "code": 2302, "fclass": "fast_food", "name": null }, "geometry": { "type": "Point", "coordinates": [ 0.1596754, 52.6665203 ] } },
{ "type": "Feature", "properties": { "osm_id": "1888177651", "code": 2302, "fclass": "fast_food", "name": null }, "geometry": { "type": "Point", "coordinates": [ -1.2022749, 51.7206759 ] } },
{ "type": "Feature", "properties": { "osm_id": "2535769679", "code": 2302, "fclass": "fast_food", "name": "Mick's" }, "geometry": { "type": "Point", "coordinates": [ -1.8973807, 52.4765174 ] } },
{ "type": "Feature", "properties": { "osm_id": "1629053623", "code": 2302, "fclass": "fast_food", "name": "The Chip Inn" }, "geometry": { "type": "Point", "coordinates": [ -1.2041771, 53.284812 ] } },
{ "type": "Feature", "properties": { "osm_id": "2535769714", "code": 2302, "fclass": "fast_food", "name": "Tasty Delight" }, "geometry": { "type": "Point", "coordinates": [ -1.8986557, 52.4766721 ] } },
{ "type": "Feature", "properties": { "osm_id": "2940784439", "code": 2302, "fclass": "fast_food", "name": "Pizza Hut" }, "geometry": { "type": "Point", "coordinates": [ -0.9704801, 51.4528549 ] } },
{ "type": "Feature", "properties": { "osm_id": "3649774845", "code": 2302, "fclass": "fast_food", "name": "Juggler's Pizza" }, "geometry": { "type": "Point", "coordinates": [ -1.5297149, 53.9975361 ] } },
{ "type": "Feature", "properties": { "osm_id": "3357929202", "code": 2302, "fclass": "fast_food", "name": "Taza la Plaza" }, "geometry": { "type": "Point", "coordinates": [ -0.1365578, 51.5163679 ] } },
{ "type": "Feature", "properties": { "osm_id": "2940838161", "code": 2302, "fclass": "fast_food", "name": "Dolce Vita" }, "geometry": { "type": "Point", "coordinates": [ -0.4361109, 53.845179 ] } },
{ "type": "Feature", "properties": { "osm_id": "655337843", "code": 2302, "fclass": "fast_food", "name": "KFC" }, "geometry": { "type": "Point", "coordinates": [ -0.4256962, 51.5750933 ] } },
{ "type": "Feature", "properties": { "osm_id": "655338003", "code": 2302, "fclass": "fast_food", "name": "McDonald's" }, "geometry": { "type": "Point", "coordinates": [ -0.4233285, 51.5731518 ] } },
{ "type": "Feature", "properties": { "osm_id": "655338083", "code": 2302, "fclass": "fast_food", "name": "Wimpy" }, "geometry": { "type": "Point", "coordinates": [ -0.4228691, 51.5723793 ] } },
{ "type": "Feature", "properties": { "osm_id": "2535904112", "code": 2302, "fclass": "fast_food", "name": "Baguette.com" }, "geometry": { "type": "Point", "coordinates": [ -1.8973782, 52.4769079 ] } },
{ "type": "Feature", "properties": { "osm_id": "655338290", "code": 2302, "fclass": "fast_food", "name": "Subway" },